,STATION,NAME,LATITUDE,LONGITUDE,ELEVATION,DATE,EMNT,EMXT,TAVG,TMAX,TMIN,Yearly_AVG
0,USR0000CTHO,"THOMES CREEK CALIFORNIA, CA US",39.8644,-122.6097,317.0,1992,26.0,109.0,65.3,75.2,55.4,59.14743083003952
1,USR0000CBEA,"BEAR PEAK CALIFORNIA, CA US",35.8842,-118.0517,2507.9,1992,9.0,81.0,47.9,56.1,39.7,59.14743083003952
2,USR0000CJUA,"JUANITA LAKE CALIFORNIA, CA US",41.7861,-122.0056,1645.9,1992,,,,,,59.14743083003952
3,USC00041244,"BUTTONWILLOW, CA US",35.4028,-119.47,68.6,1992,26.0,107.0,64.6,77.6,51.6,59.14743083003952
4,USC00047902,"SANTA BARBARA, CA US",34.4167,-119.6844,4.9,1992,,,,,,59.14743083003952
5,USC00044997,"LIVERMORE, CA US",37.6922,-121.7691,146.3,1992,28.0,104.0,61.4,73.9,49.0,59.14743083003952
6,USC00042338,"DEER CREEK FOREBAY, CA US",39.3,-120.83333,1357.9,1992,11.0,96.0,55.6,66.1,45.0,59.14743083003952
7,USR0000CJUN,"JUNIPER CREEK CALIFORNIA, CA US",41.3322,-120.4725,1332.6,1992,0.0,100.0,50.9,64.9,36.9,59.14743083003952
8,USR0000CLYO,"LYONS VALLEY CALIFORNIA, CA US",39.1258,-123.0736,975.4,1992,26.0,99.0,58.9,67.3,50.4,59.14743083003952
9,USC00042331,"DEEP SPRINGS COLLEGE, CA US",37.3738,-117.9802,1592.6,1992,1.0,96.0,53.5,67.3,39.8,59.14743083003952
10,USC00042574,"DUNSMUIR TREATMENT PLANT, CA US",41.1833,-122.2736,661.4,1992,18.0,102.0,56.1,70.6,41.5,59.14743083003952
11,USC00041497,"CANYON DAM, CA US",40.1705,-121.0886,1389.9,1992,8.0,96.0,49.4,62.9,36.0,59.14743083003952
12,USC00044523,"KERN RIVER PH 3, CA US",35.7831,-118.4389,823.9,1992,20.0,,,,48.9,59.14743083003952
13,USC00046944,"PIT RIVER POWER HOUSE 1, CA US",41.0,-121.5,877.8,1992,,,,,,59.14743083003952
14,USC00042467,"DONNER MEMORIAL ST PARK, CA US",39.3239,-120.2331,1809.6,1992,,,,,,59.14743083003952
15,USC00046943,"PISMO BEACH, CA US",35.1597,-120.68299999999999,11.9,1992,34.0,95.0,59.9,70.0,49.7,59.14743083003952
16,USC00040161,"ALTURAS, CA US",41.4901,-120.5437,1334.4,1992,-9.0,104.0,48.2,66.0,30.4,59.14743083003952
17,USC00041018,"BOWMAN DAM, CA US",39.4539,-120.6556,1641.3,1992,,,,,,59.14743083003952
18,USC00044647,"LAGUNA BEACH, CA US",33.5453,-117.7813,13.4,1992,,,,,,59.14743083003952
19,USC00047916,"SANTA CRUZ, CA US",36.98785,-121.99951999999999,21.3,1992,30.0,91.0,59.3,69.6,49.1,59.14743083003952
20,USC00046946,"PIT RIVER PH 5, CA US",40.9869,-121.9772,444.4,1992,,,,,,59.14743083003952
21,USC00046826,"PETALUMA AIRPORT, CA US",38.2577,-122.6077,6.1,1992,28.0,,,,46.4,59.14743083003952
22,USC00041010,"BOULEVARD 2, CA US",32.66667,-116.3,1097.3,1992,,,,,,59.14743083003952
23,USC00044881,"LEE VINING, CA US",37.9567,-119.1194,2071.7,1992,,,,,,59.14743083003952
24,USC00041253,"CACHUMA LAKE, CA US",34.5822,-119.9817,242.3,1992,29.0,105.0,63.2,78.8,47.6,59.14743083003952
25,USC00046719,"PASADENA, CA US",34.1483,-118.1447,263.3,1992,34.0,102.0,66.7,79.2,54.2,59.14743083003952
26,USR0000CBBR,"BIG BAR CALIFORNIA, CA US",40.7333,-123.2333,457.2,1992,26.0,112.0,59.8,74.1,45.4,59.14743083003952
27,USC00045866,"MORRO BAY FIRE DEPARTMENT, CA US",35.367,-120.8447,36.0,1992,26.0,91.0,54.9,66.5,43.3,59.14743083003952
28,USW00093209,"PASO ROBLES MUNICIPAL AIRPORT, CA US",35.6697,-120.6283,246.9,1992,24.0,110.0,61.2,77.7,44.7,59.14743083003952
29,USC00042598,"EAGLE MOUNTAIN, CA US",33.8089,-115.4508,296.6,1992,33.0,114.0,73.6,83.9,63.4,59.14743083003952
30,USC00044412,"JULIAN CDF, CA US",33.0763,-116.5925,1284.7,1992,,,,,,59.14743083003952
31,USR0000CHOR,"HORSE THIEF SPRINGS CALIFORNIA, CA US",35.7706,-115.9092,1524.0,1992,18.0,99.0,60.0,68.4,51.5,59.14743083003952
32,USC00044536,"KETTLEMAN STATION, CA US",36.0725,-120.08778000000001,154.8,1992,,,,,,59.14743083003952
33,USC00047807,"SAN GREGORIO 2 SE, CA US",37.31167,-122.36166999999999,83.8,1992,30.0,90.0,56.5,66.1,46.9,59.14743083003952
34,USC00042239,"CUYAMACA, CA US",32.9897,-116.5872,1414.3,1992,12.0,94.0,53.3,66.0,40.7,59.14743083003952
35,USR0000CDGR,"DEVILS GARDEN CALIFORNIA, CA US",41.53,-120.6714,1530.7,1992,0.0,97.0,49.8,61.7,37.9,59.14743083003952
36,USC00044890,"LEMON COVE, CA US",36.3817,-119.0264,156.4,1992,28.0,108.0,65.2,79.1,51.3,59.14743083003952
37,USC00045983,"MOUNT SHASTA, CA US",41.3218,-122.3173,1102.5,1992,10.0,96.0,51.3,64.8,37.8,59.14743083003952
38,USR0000CHOL,"HORSE LAKE CALIFORNIA, CA US",40.6306,-120.5028,1554.5,1992,-6.0,98.0,48.4,63.2,33.6,59.14743083003952
39,USS0020H12S,"DISMAL SWAMP, CA US",41.99,-120.18,2243.3,1992,,91.0,,52.1,,59.14743083003952
40,USR0000CSCI,"SANTA CRUZ ISLAND CALIFORNIA, CA US",33.9958,-119.7222,76.2,1992,17.0,97.0,56.9,73.8,40.0,59.14743083003952
41,USR0000CSCN,"SCORPION CALIFORNIA, CA US",41.1117,-122.6967,1341.1,1992,,,,,,59.14743083003952
42,USC00041277,"CALAVERAS BIG TREES, CA US",38.2769,-120.3113,1431.0,1992,14.0,91.0,50.8,61.2,40.4,59.14743083003952
43,USC00045756,"MOJAVE, CA US",35.0492,-118.1619,833.6,1992,21.0,105.0,63.6,76.0,51.2,59.14743083003952
44,USC00047933,"SANTA MARGARITA BOOST, CA US",35.3741,-120.6375,349.9,1992,,,,,,59.14743083003952
45,USC00041159,"BUCKS CREEK, CA US",39.9372,-121.3147,576.4,1992,,,,,,59.14743083003952
46,USC00043578,"GRATON, CA US",38.4305,-122.8647,61.0,1992,26.0,100.0,58.0,72.0,44.0,59.14743083003952
47,USC00046602,"PACOIMA DAM FC33A E, CA US",34.3294,-118.4005,472.4,1992,,,,,,59.14743083003952
48,USC00046726,"PASKENTA RANGER STATION, CA US",39.8875,-122.5538,230.1,1992,,,,,,59.14743083003952
49,USC00043452,"GLENDORA FC 287B, CA US",34.1472,-117.8472,284.4,1992,,,,,,59.14743083003952
50,USC00043573,"GRASS VALLEY NUMBER 2, CA US",39.2041,-121.068,731.5,1992,,97.0,,70.5,,59.14743083003952
51,USR0000CHNM,"HUNTER MOUNTAIN CALIFORNIA, CA US",36.5625,-117.4736,2097.0,1992,8.0,89.0,50.8,60.9,40.8,59.14743083003952
52,USC00046960,"PLACERVILLE, CA US",38.6955,-120.8244,563.9,1992,,,,,,59.14743083003952
53,USW00024216,"RED BLUFF MUNICIPAL AIRPORT, CA US",40.1519,-122.2536,107.6,1992,24.0,110.0,63.9,76.4,51.4,59.14743083003952
54,USW00023129,"LONG BEACH DAUGHERTY AIRPORT, CA US",33.8116,-118.1463,9.4,1992,37.0,102.0,66.2,76.0,56.4,59.14743083003952
55,USW00023244,"MOFFETT FEDERAL AIRFIELD, CA US",37.4058,-122.0481,11.9,1992,33.0,94.0,62.5,71.9,53.2,59.14743083003952
56,USW00024213,"EUREKA WEATHER FORECAST OFFICE WOODLEY ISLAND, CA US",40.8097,-124.1602,6.1,1992,34.0,80.0,55.3,61.5,49.1,59.14743083003952
57,USC00041288,"CALEXICO, CA US",32.6881,-115.4644,3.7,1992,,,,,,59.14743083003952
58,USC00044555,"KING CITY, CA US",36.2069,-121.1377,97.5,1992,26.0,100.0,61.0,75.6,46.3,59.14743083003952
59,USC00041048,"BRAWLEY, CA US",32.9544,-115.5581,-30.5,1992,28.0,115.0,72.2,87.0,57.3,59.14743083003952
60,USR0000CFIS,"FISH CREEK MOUNTAIN CALIFORNIA, CA US",32.9903,-116.0669,231.6,1992,44.0,115.0,77.6,86.0,69.1,59.14743083003952
61,USC00048917,"THREE RIVERS EDISON PH 1, CA US",36.465,-118.8619,347.5,1992,24.0,112.0,64.7,80.1,49.2,59.14743083003952
62,USC00040192,"ANAHEIM, CA US",33.8647,-117.8425,71.6,1992,37.0,101.0,67.4,78.1,56.6,59.14743083003952
63,USR0000CBAL,"BALD MOUNTAIN LOC CALIFORNIA, CA US",38.9056,-120.6972,1426.5,1992,18.0,101.0,58.3,67.8,48.9,59.14743083003952
64,USC00044671,"LAKE ARROWHEAD, CA US",34.2466,-117.1883,1586.5,1992,17.0,92.0,52.1,62.7,41.4,59.14743083003952
65,USC00042494,"DOWNEY FIRE STATION FC107C, CA US",33.9297,-118.1455,33.5,1992,,,,,,59.14743083003952
66,USC00045400,"MATHER, CA US",37.885,-119.8561,1374.6,1992,,,,,,59.14743083003952
67,USC00046610,"PAICINES 4 W, CA US",36.715,-121.34917,275.8,1992,,,,,,59.14743083003952
68,USC00047821,"SAN JOSE, CA US",37.3497,-121.9033,20.4,1992,,,,,,59.14743083003952
69,USC00042012,"CORCORAN IRRIGATION DIST., CA US",36.0975,-119.5817,61.0,1992,28.0,,,,52.0,59.14743083003952
70,USC00046730,"PASO ROBLES, CA US",35.6277,-120.6855,222.5,1992,22.0,108.0,60.5,77.0,44.0,59.14743083003952
71,USR0000CCAR,"CARRIZO CALIFORNIA, CA US",35.0964,-119.7728,759.0,1992,30.0,102.0,63.3,73.4,53.1,59.14743083003952
72,USW00023258,"MODESTO CITY CO AIRPORT, CA US",37.6241,-120.9505,22.3,1992,31.0,104.0,64.4,76.1,52.7,59.14743083003952
73,USC00043357,"GASQUET RANGER STATION, CA US",41.8452,-123.9647,118.0,1992,,,,,,59.14743083003952
74,USC00047957,"SANTA PAULA, CA US",34.3119,-119.13306000000001,72.2,1992,,,,,,59.14743083003952
75,USC00042147,"CRESCENT CITY, CA US",41.7958,-124.2147,13.1,1992,33.0,84.0,54.9,61.8,48.0,59.14743083003952
76,USC00042148,"CRESCENT CITY 7 ENE, CA US",41.79417,-124.085,36.6,1992,,,,,,59.14743083003952
77,USC00046624,"PALMDALE, CA US",34.5883,-118.0938,796.1,1992,15.0,107.0,63.1,77.4,48.7,59.14743083003952
78,USR0000CSAW,"SAWYERS BAR CALIFORNIA, CA US",41.3003,-123.1322,668.1,1992,,,,,,59.14743083003952
79,USC00046508,"ORLEANS, CA US",41.3088,-123.5316,122.8,1992,28.0,106.0,59.9,74.6,45.2,59.14743083003952
80,USC00048928,"TIGER CREEK PH, CA US",38.44611,-120.49916999999999,717.8,1992,21.0,100.0,57.6,71.1,44.1,59.14743083003952
81,USC00046506,"ORLAND, CA US",39.7458,-122.1997,77.4,1992,26.0,111.0,63.8,76.8,50.8,59.14743083003952
82,USC00045890,"MOUNTAIN PASS, CA US",35.470279999999995,-115.54361000000002,1441.7,1992,,,,,,59.14743083003952
83,USC00045532,"MERCED, CA US",37.2888,-120.5158,46.9,1992,27.0,107.0,63.1,78.0,48.2,59.14743083003952
84,USC00043113,"FOLSOM DAM, CA US",38.7,-121.16667,106.7,1992,31.0,107.0,63.5,76.3,50.7,59.14743083003952
85,USC00043489,"GOLD ROCK RANCH, CA US",32.88333,-114.86667,147.8,1992,34.0,117.0,74.7,87.9,61.7,59.14743083003952
86,USC00044577,"KLAMATH, CA US",41.57861,-124.07472,8.5,1992,,,,,,59.14743083003952
87,USC00047846,"SAN LUIS DAM, CA US",37.053329999999995,-121.05778000000001,84.4,1992,29.0,106.0,64.0,75.3,52.7,59.14743083003952
88,USR0000CCAH,"CAHOON CALIFORNIA, CA US",36.3469,-121.5108,682.8,1992,29.0,99.0,58.4,70.0,46.8,59.14743083003952
89,USC00047723,"SAN BERNARDINO F S 226, CA US",34.134440000000005,-117.25388999999998,347.5,1992,,104.0,,78.4,,59.14743083003952
90,USC00047965,"SANTA ROSA, CA US",38.45579,-122.71335,50.6,1992,30.0,95.0,59.7,71.1,48.3,59.14743083003952
91,USR0000CCAL,"CALLAHAN CALIFORNIA, CA US",41.3075,-122.7958,955.9,1992,15.0,106.0,54.4,70.6,38.2,59.14743083003952
92,USR0000CLST,"LAS TABLAS CALIFORNIA, CA US",35.6564,-120.9242,303.0,1992,,109.0,,78.1,,59.14743083003952
93,USR0000CWHT,"WHITMORE CALIFORNIA, CA US",40.6194,-121.8994,736.7,1992,28.0,105.0,61.1,71.3,50.8,59.14743083003952
94,USC00044211,"IDYLLWILD FIRE DEPARTMENT, CA US",33.7572,-116.7066,1639.8,1992,,,,,,59.14743083003952
95,USW00023232,"SACRAMENTO EXECUTIVE AIRPORT, CA US",38.5069,-121.495,4.6,1992,28.0,106.0,62.2,74.8,49.5,59.14743083003952
96,USW00023110,"LEMOORE REEVES NAS, CA US",36.33333,-119.95,70.7,1992,28.0,110.0,65.8,79.7,51.9,59.14743083003952
97,USC00041080,"BRIDGEVILLE 4 NNW, CA US",40.51944,-123.82167,640.1,1992,,,,,,59.14743083003952
98,USW00023237,"STOCKTON METROPOLITAN AIRPORT, CA US",37.8891,-121.2258,7.9,1992,28.0,105.0,63.3,75.2,51.5,59.14743083003952
99,USW00023239,"ALAMEDA NAS, CA US",37.78333,-122.31667,9.1,1992,35.0,88.0,60.0,66.7,53.3,59.14743083003952
100,USW00023234,"SAN FRANCISCO INTERNATIONAL AIRPORT, CA US",37.6197,-122.3647,2.4,1992,35.0,92.0,59.7,67.7,51.8,59.14743083003952
101,USW00023233,"SALINAS AIRPORT, CA US",36.6636,-121.6081,22.6,1992,31.0,94.0,59.7,69.6,49.7,59.14743083003952
102,USC00045679,"MINERAL, CA US",40.3458,-121.6091,1485.9,1992,0.0,94.0,46.2,61.2,31.2,59.14743083003952
103,USC00048826,"TEHACHAPI, CA US",35.13333,-118.45,1224.4,1992,17.0,,,,44.5,59.14743083003952
104,USC00046646,"PALO ALTO, CA US",37.4436,-122.1402,7.6,1992,28.0,89.0,58.2,69.0,47.4,59.14743083003952
105,USR0000CGHP,"GRASSHOPPER CALIFORNIA, CA US",40.7817,-120.7844,1877.0,1992,2.0,97.0,46.3,60.2,32.5,59.14743083003952
106,USC00041072,"BRIDGEPORT, CA US",38.2575,-119.2286,1972.1,1992,-16.0,92.0,45.2,64.6,25.8,59.14743083003952
107,USC00043491,"GOLD RUN 2 SW, CA US",39.165,-120.8566,1011.9,1992,,,,,,59.14743083003952
108,USC00041194,"BURBANK VALLEY PUMP PLANT, CA US",34.1866,-118.348,199.6,1992,31.0,,,,54.6,59.14743083003952
109,USR0000CTAN,"TANBARK CALIFORNIA, CA US",34.2069,-117.7606,792.5,1992,31.0,99.0,61.7,72.0,51.4,59.14743083003952
110,USC00043498,"GOLDSTONE ECHO NUMBER 2, CA US",35.2813,-116.7844,899.2,1992,,,,,,59.14743083003952
111,USC00047731,"SAN CLEMENTE DAM, CA US",36.4375,-121.7092,182.9,1992,,,,,,59.14743083003952
112,USC00043134,"FORESTHILL RANGER STATION, CA US",39.01,-120.8455,919.0,1992,,,,,,59.14743083003952
113,USC00044223,"IMPERIAL, CA US",32.8488,-115.5666,-19.5,1992,31.0,114.0,73.2,87.3,59.1,59.14743083003952
114,USC00045311,"MANZANITA LAKE, CA US",40.5411,-121.5766,1752.6,1992,5.0,92.0,46.3,59.8,32.9,59.14743083003952
115,USC00045795,"MONTEREY, CA US",36.590309999999995,-121.9055,79.2,1992,34.0,90.0,59.0,67.3,50.6,59.14743083003952
116,USC00046521,"OROVILLE, CA US",39.5177,-121.553,52.1,1992,27.0,106.0,62.2,75.6,48.7,59.14743083003952
117,USC00047851,"SAN LUIS OBISPO POLY, CA US",35.3056,-120.6619,93.9,1992,34.0,99.0,61.2,73.9,48.5,59.14743083003952
118,USR0000CCOH,"COHASSET CALIFORNIA, CA US",39.8717,-121.7689,528.2,1992,27.0,106.0,63.8,73.2,54.3,59.14743083003952
119,USW00023161,"BARSTOW DAGGETT AIRPORT, CA US",34.8536,-116.7858,584.3,1992,22.0,112.0,67.9,82.0,53.7,59.14743083003952
120,USR0000CSNR,"SANTA RITA CALIFORNIA, CA US",36.3478,-120.5978,1524.0,1992,21.0,92.0,55.6,62.8,48.3,59.14743083003952
121,USW00024257,"REDDING MUNICIPAL AIRPORT, CA US",40.5175,-122.2986,151.5,1992,24.0,110.0,63.6,76.8,50.3,59.14743083003952
122,USC00040673,"BEN LOMOND NUMBER 4, CA US",37.0855,-122.0797,128.0,1992,26.0,99.0,59.6,73.8,45.5,59.14743083003952
123,USR0000CPIC,"PICACHO WASH CALIFORNIA, CA US",32.95,-114.7322,256.0,1992,38.0,112.0,73.9,84.0,63.8,59.14743083003952
124,USC00040798,"BIG TUJUNGA DAM FC46, CA US",34.29481,-118.18848999999999,709.0,1992,,,,,,59.14743083003952
125,USC00043824,"HAT CREEK, CA US",40.9316,-121.5433,919.0,1992,4.0,104.0,52.3,70.6,33.9,59.14743083003952
126,USC00040790,"BIG SUR STATION, CA US",36.2472,-121.7802,61.0,1992,,,,,,59.14743083003952
127,USC00049124,"UKIAH 4 WSW, CA US",39.1266,-123.2719,404.8,1992,,,,,,59.14743083003952
128,USC00049367,"VISALIA, CA US",36.32833,-119.2997,92.4,1992,31.0,100.0,64.3,75.2,53.3,59.14743083003952
129,USR0000CCOR,"CORRALITOS CALIFORNIA, CA US",36.9911,-121.7978,137.2,1992,28.0,98.0,59.8,72.8,46.8,59.14743083003952
130,USW00023174,"LOS ANGELES INTERNATIONAL AIRPORT, CA US",33.938,-118.3888,29.6,1992,40.0,92.0,64.8,71.9,57.6,59.14743083003952
131,USR0000CBLD,"BLUE DOOR CALIFORNIA, CA US",41.0547,-120.3375,1711.5,1992,2.0,95.0,47.6,60.0,35.3,59.14743083003952
132,USC00047085,"PORTOLA, CA US",39.8053,-120.4719,1478.3,1992,-8.0,97.0,47.7,64.1,31.4,59.14743083003952
133,USC00049260,"VAN NUYS FC15A, CA US",34.18333,-118.45,211.8,1992,,,,,,59.14743083003952
134,USR0000CMAR,"MARIPOSA GROVE CALIFORNIA, CA US",37.5128,-119.6047,1950.7,1992,12.0,92.0,52.8,63.0,42.7,59.14743083003952
135,USC00040449,"BALCH POWER HOUSE, CA US",36.9092,-119.0883,528.8,1992,,,,,,59.14743083003952
136,USC00042506,"DOYLE 4 SSE, CA US",39.9717,-120.0828,1338.1,1992,-2.0,100.0,51.8,66.9,36.8,59.14743083003952
137,USW00023179,"NEEDLES AIRPORT, CA US",34.7675,-114.6188,271.3,1992,30.0,116.0,73.8,86.6,61.0,59.14743083003952
138,USS0020H06S,"CEDAR PASS, CA US",41.58,-120.3,2142.7,1992,,91.0,,55.3,,59.14743083003952
139,USC00040684,"BENTON INSPECTION STATION, CA US",37.84278,-118.47833,1664.2,1992,,,,,,59.14743083003952
140,USC00041653,"CHALLENGE R S, CA US",39.48333,-121.21667,783.3,1992,,,,,,59.14743083003952
141,USC00042500,"DOWNIEVILLE, CA US",39.5633,-120.8238,888.5,1992,17.0,101.0,54.2,69.2,39.2,59.14743083003952
142,USC00043710,"HAIWEE, CA US",36.1388,-117.9527,1165.9,1992,19.0,102.0,59.9,73.1,46.7,59.14743083003952
143,USR0000CBLT,"BEN BOLT CALIFORNIA, CA US",38.5908,-120.9336,275.8,1992,,,,,,59.14743083003952
144,USC00042504,"DOYLE, CA US",40.0267,-120.1055,1308.5,1992,,,,,,59.14743083003952
145,USC00047077,"PORTERVILLE, CA US",36.06778,-119.02,119.8,1992,26.0,106.0,65.0,79.6,50.4,59.14743083003952
146,USC00048045,"SCOTIA, CA US",40.4833,-124.1038,41.5,1992,33.0,94.0,56.0,65.3,46.7,59.14743083003952
147,USS0019L08S,"LEAVITT MEADOWS, CA US",38.3,-119.55,2194.0,1992,,87.0,,59.4,,59.14743083003952
148,USC00049378,"VISTA, CA US",33.2354,-117.2322,131.1,1992,37.0,102.0,65.8,76.7,54.9,59.14743083003952
149,USC00049152,"U C L A, CA US",34.0697,-118.4427,131.1,1992,,,,,,59.14743083003952
150,USC00049390,"VOLTA PH, CA US",40.4583,-121.8663,676.7,1992,,,,,,59.14743083003952
151,USC00041428,"CAMP PARDEE, CA US",38.2486,-120.8433,200.6,1992,28.0,106.0,63.5,76.0,50.9,59.14743083003952
152,USR0000CBKR,"BAKER CALIFORNIA, CA US",40.2789,-122.4869,213.4,1992,21.0,111.0,61.5,75.0,48.0,59.14743083003952
153,USC00041424,"CAMPO, CA US",32.6263,-116.4699,801.6,1992,,,,,,59.14743083003952
154,USC00042756,"ELLERY LAKE, CA US",37.9355,-119.2305,2939.8,1992,,,,,,59.14743083003952
155,USR0000CDOY,"DOYLE CALIFORNIA, CA US",40.0222,-120.1056,1292.4,1992,-1.0,102.0,53.0,68.0,38.1,59.14743083003952
156,USS0019L19S,"EBBETTS PASS, CA US",38.55,-119.8,2671.6,1992,2.0,75.0,40.4,49.2,31.7,59.14743083003952
157,USC00040212,"ANGWIN PACIFIC UNION COLLEGE, CA US",38.573,-122.4405,522.7,1992,27.0,96.0,58.7,69.8,47.6,59.14743083003952
158,USS0019L07S,"SONORA PASS, CA US",38.31,-119.6,2690.5,1992,,80.0,,51.8,,59.14743083003952
159,USC00049026,"TRINITY RIVER HATCHERY, CA US",40.7263,-122.7947,567.2,1992,24.0,104.0,56.7,71.2,42.2,59.14743083003952
160,USW00023273,"SANTA MARIA PUBLIC AIRPORT, CA US",34.8994,-120.4486,73.8,1992,28.0,95.0,59.4,70.8,48.1,59.14743083003952
161,USW00023155,"BAKERSFIELD AIRPORT, CA US",35.4344,-119.0542,149.0,1992,30.0,108.0,66.3,78.6,53.9,59.14743083003952
162,USW00023272,"SAN FRANCISCO DOWNTOWN, CA US",37.7705,-122.4269,45.7,1992,38.0,94.0,60.8,68.5,53.1,59.14743083003952
163,USR0000CFRI,"FRIEND MOUNTAIN CALIFORNIA, CA US",40.505,-123.3417,1219.2,1992,20.0,100.0,54.6,65.3,43.8,59.14743083003952
164,USW00023271,"SACRAMENTO 5 ESE, CA US",38.5552,-121.4183,11.6,1992,31.0,107.0,64.7,76.7,52.8,59.14743083003952
165,USC00043859,"HAYFORK, CA US",40.5524,-123.2122,701.0,1992,,,,,,59.14743083003952
166,USW00023157,"BISHOP AIRPORT, CA US",37.3711,-118.35799999999999,1250.3,1992,9.0,103.0,56.7,74.3,39.2,59.14743083003952
167,USW00023156,"BEAUMONT NUMBER 2, CA US",33.9255,-116.9903,789.7,1992,28.0,109.0,63.7,78.2,49.2,59.14743083003952
168,USW00023158,"BLYTHE ASOS, CA US",33.6186,-114.7142,120.4,1992,30.0,116.0,74.0,87.3,60.7,59.14743083003952
169,USC00041312,"CALISTOGA, CA US",38.5961,-122.6013,121.9,1992,25.0,104.0,61.5,77.2,45.9,59.14743083003952
170,USC00044701,"LAKEPORT, CA US",39.03333,-122.91667,400.8,1992,,,,,,59.14743083003952
171,USC00042402,"DE SABLA, CA US",39.8716,-121.6108,826.0,1992,21.0,102.0,56.2,70.6,41.9,59.14743083003952
172,USC00043614,"GREENVIEW, CA US",41.5519,-122.9236,859.5,1992,,,,,,59.14743083003952
173,USC00043855,"HAYFIELD PUMPING PLANT, CA US",33.7044,-115.6289,417.6,1992,27.0,114.0,69.9,84.1,55.6,59.14743083003952
174,USC00045915,"MOUNT DIABLO JUNCTION, CA US",37.8792,-121.9303,661.4,1992,28.0,100.0,59.7,70.4,49.0,59.14743083003952
175,USC00041316,"CALLAHAN, CA US",41.3111,-122.8044,970.8,1992,15.0,98.0,52.2,66.6,37.7,59.14743083003952
176,USC00044705,"LAKE SABRINA, CA US",37.213,-118.6136,2763.0,1992,,,,,,59.14743083003952
177,USC00042406,"DESCANSO RANGER STATION, CA US",32.85,-116.61667,1066.8,1992,,,,,,59.14743083003952
178,USS0019L06S,"POISON FLAT, CA US",38.51,-119.63,2357.9,1992,,82.0,,54.4,,59.14743083003952
179,USC00049035,"TRONA, CA US",35.7636,-117.3908,516.6,1992,,,,,,59.14743083003952
180,USR0000CSLA,"SLATER BUTTE CALIFORNIA, CA US",41.8586,-123.3525,1423.4,1992,21.0,100.0,52.8,62.8,42.9,59.14743083003952
181,USC00040343,"ASH MOUNTAIN, CA US",36.4914,-118.8253,520.6,1992,25.0,108.0,65.4,78.3,52.6,59.14743083003952
182,USC00042760,"ACAMPO 5 NE, CA US",38.23333,-121.2,28.0,1992,,,,,,59.14743083003952
183,USC00042640,"EAST PARK RESERVOIR, CA US",39.35917,-122.51778,367.3,1992,20.0,105.0,60.7,74.8,46.5,59.14743083003952
184,USS0020H13S,"ADIN MOUNTAIN, CA US",41.24,-120.79,1886.7,1992,,94.0,,56.2,,59.14743083003952
185,USW00093230,"SOUTH LAKE TAHOE AIRPORT, CA US",38.8983,-119.9947,1924.5,1992,-13.0,90.0,44.2,60.7,27.7,59.14743083003952
186,USW00093111,"POINT MUGU NF, CA US",34.11667,-119.11667,4.0,1992,35.0,87.0,62.0,70.2,53.7,59.14743083003952
187,USW00093112,"NORTH ISLAND NAS, CA US",32.7,-117.2,7.9,1992,39.0,88.0,65.8,71.6,59.9,59.14743083003952
188,USC00044710,"LAKESIDE 2 E, CA US",32.8536,-116.8947,210.3,1992,,,,,,59.14743083003952
189,USR0000CRIC,"RICE VALLEY CALIFORNIA, CA US",34.0608,-114.7322,249.9,1992,27.0,116.0,72.7,86.4,59.0,59.14743083003952
190,USC00044712,"LAKE SOLANO, CA US",38.492,-122.0039,57.0,1992,,,,,,59.14743083003952
191,USC00044713,"LAKE SPAULDING, CA US",39.318329999999996,-120.63917,1571.5,1992,4.0,93.0,49.4,62.5,36.3,59.14743083003952
192,USC00043747,"HANFORD 1 S, CA US",36.3158,-119.637,72.2,1992,28.0,107.0,63.9,76.5,51.2,59.14743083003952
193,USC00040235,"ANZA, CA US",33.5558,-116.6738,1193.3,1992,,,,,,59.14743083003952
194,USW00093107,"SAN DIEGO MIRAMAR NAS, CA US",32.86667,-117.13333,145.4,1992,34.0,97.0,66.3,76.9,55.8,59.14743083003952
195,USC00042771,"EL MIRAGE, CA US",34.5891,-117.6302,899.2,1992,15.0,106.0,60.0,76.2,43.8,59.14743083003952
196,USC00040232,"ANTIOCH PUMPING PLANT NUMBER 3, CA US",37.9833,-121.7525,18.3,1992,28.0,104.0,62.7,74.4,51.0,59.14743083003952
197,USW00003104,"DESERT RESORTS REGIONAL AIRPORT, CA US",33.626670000000004,-116.15943999999999,-36.0,1992,18.0,115.0,71.7,88.3,55.0,59.14743083003952
198,USR0000COAM,"OAK MOUNTAIN CALIFORNIA, CA US",41.0064,-121.9833,518.2,1992,24.0,110.0,61.0,73.5,48.4,59.14743083003952
199,USR0000COAK,"OAK KNOLL CALIFORNIA, CA US",41.8386,-122.85,591.3,1992,19.0,111.0,56.8,72.9,40.8,59.14743083003952
200,USW00093101,"EL TORO MCAS, CA US",33.66667,-117.73333000000001,117.0,1992,41.0,100.0,67.2,76.8,57.6,59.14743083003952
201,USR0000CSIM,"SIMS CALIFORNIA, CA US",41.075,-122.3733,731.5,1992,26.0,108.0,59.6,72.6,46.7,59.14743083003952
202,USR0000CGRA,"GRANITE MOUNTAIN CALIFORNIA, CA US",34.5356,-117.0258,1438.7,1992,24.0,97.0,59.4,68.2,50.7,59.14743083003952
203,USC00045933,"MOUNT HAMILTON, CA US",37.3436,-121.6425,1282.0,1992,23.0,88.0,55.7,62.4,49.0,59.14743083003952
204,USC00041697,"CHERRY VALLEY DAM, CA US",37.9747,-119.9161,1452.4,1992,12.0,97.0,54.1,66.1,42.1,59.14743083003952
205,USC00043875,"HEALDSBURG, CA US",38.621359999999996,-122.85813999999999,53.0,1992,29.0,100.0,60.6,73.0,48.2,59.14743083003952
206,USC00043878,"HEALDSBURG NUMBER 2, CA US",38.63333,-122.86667,45.7,1992,,,,,,59.14743083003952
207,USR0000CSHQ,"SHADEQUARTER CALIFORNIA, CA US",36.5672,-118.9556,1240.2,1992,21.0,97.0,59.0,67.2,50.7,59.14743083003952
208,USS0020K30S,"SQUAW VALLEY G.C., CA US",39.19,-120.26,2447.2,1992,3.0,81.0,42.0,50.5,33.5,59.14743083003952
209,USW00023188,"SAN DIEGO INTERNATIONAL AIRPORT, CA US",32.7336,-117.1831,4.6,1992,38.0,91.0,65.6,72.4,58.7,59.14743083003952
210,USW00023187,"SANDBERG, CA US",34.7436,-118.7242,1374.6,1992,26.0,97.0,58.1,66.3,49.9,59.14743083003952
211,USC00049073,"TURLOCK NUMBER 2, CA US",37.5005,-120.855,35.1,1992,29.0,104.0,63.8,75.6,52.0,59.14743083003952
212,USW00093134,"LOS ANGELES DOWNTOWN USC, CA US",34.0236,-118.2911,54.6,1992,40.0,100.0,68.0,77.0,58.9,59.14743083003952
213,USC00042319,"DEATH VALLEY, CA US",36.4622,-116.8669,-59.1,1992,26.0,125.0,76.9,91.3,62.5,59.14743083003952
214,USR0000CFOU,"FOUNTAIN SPRINGS CALIFORNIA, CA US",35.8922,-118.915,64.0,1992,24.0,108.0,64.0,77.3,50.6,59.14743083003952
215,USC00043647,"GRIZZLY CREEK STATE, CA US",40.4863,-123.9088,125.9,1992,29.0,87.0,54.0,63.0,45.1,59.14743083003952
216,USC00040379,"AUBERRY 2 NW, CA US",37.0919,-119.5128,637.0,1992,,,,,,59.14743083003952
217,USC00040014,"ACTON ESCONDIDO CANYON, CA US",34.4938,-118.2713,863.5,1992,,,,,,59.14743083003952
218,USC00042671,"ECHO SUMT SIER TAHOE, CA US",38.78333,-120.03333,2240.3,1992,7.0,83.0,45.1,54.6,35.7,59.14743083003952
219,USR0000CYUC,"YUCCA VALLEY CALIFORNIA, CA US",34.1233,-116.4078,993.6,1992,18.0,105.0,61.9,75.0,48.8,59.14743083003952
220,USC00043761,"HAPPY CAMP RANGER STATION, CA US",41.8042,-123.3758,341.4,1992,,,,,,59.14743083003952
221,USC00049087,"TUSTIN IRVINE RANCH, CA US",33.7025,-117.75388999999998,71.6,1992,29.0,100.0,64.2,76.9,51.5,59.14743083003952
222,USR0000CCHC,"CHICO CALIFORNIA, CA US",39.7119,-121.7789,70.1,1992,23.0,108.0,62.4,74.6,50.1,59.14743083003952
223,USR0000CPAN,"PANAMINT CALIFORNIA, CA US",36.1203,-117.0878,2097.0,1992,12.0,93.0,54.2,65.4,43.0,59.14743083003952
224,USS0020K31S,"CSS LAB, CA US",39.33,-120.37,2089.4,1992,,,,,,59.14743083003952
225,USW00003122,"TORRANCE AIRPORT, CA US",33.8016,-118.3419,27.4,1992,38.0,92.0,64.5,74.1,54.9,59.14743083003952
226,USC00041476,"CANBY, CA US",41.4219,-120.9016,1313.7,1992,,,,,,59.14743083003952
227,USC00044500,"KENTFIELD, CA US",37.9566,-122.5447,44.2,1992,32.0,96.0,60.8,72.8,48.7,59.14743083003952
228,USC00040383,"AUBURN, CA US",38.9072,-121.0838,393.8,1992,,101.0,,72.9,,59.14743083003952
229,USC00046926,"PINNACLES NM, CA US",36.4819,-121.1822,398.4,1992,21.0,108.0,60.1,78.4,41.8,59.14743083003952
230,USC00044867,"LECHUZA PATROL STATION, CA US",34.07639,-118.88028,487.7,1992,,,,,,59.14743083003952
231,USC00044628,"LA CRESCENTA FC251C, CA US",34.2222,-118.2377,470.9,1992,,,,,,59.14743083003952
232,USC00043417,"GILROY, CA US",37.003,-121.5608,59.1,1992,,,,,,59.14743083003952
233,USC00040029,"ADIN RANGER STATION, CA US",41.1936,-120.9447,1278.6,1992,,,,,,59.14743083003952
234,USR0000CPAT,"PATTY MOCUS CALIFORNIA, CA US",40.295,-122.8667,1066.8,1992,23.0,99.0,57.4,66.8,48.0,59.14743083003952
235,USW00093114,"TUSTIN MCAF, CA US",33.7,-117.83333,17.1,1992,35.0,104.0,67.5,78.8,56.1,59.14743083003952
236,USW00023190,"SANTA BARBARA MUNICIPAL AIRPORT, CA US",34.4258,-119.8425,2.7,1992,32.0,106.0,62.0,72.9,51.1,59.14743083003952
237,USC00040144,"ALTADENA, CA US",34.182109999999994,-118.13826999999999,343.5,1992,,,,,,59.14743083003952
238,USW00003159,"LANCASTER, CA US",34.7411,-118.2116,712.6,1992,18.0,103.0,61.3,74.6,48.0,59.14743083003952
239,USR0000CBUL,"BULL FLAT CALIFORNIA, CA US",40.4808,-120.1139,1339.6,1992,-5.0,100.0,50.2,66.0,34.4,59.14743083003952
240,USC00048560,"STOCKTON FIRE STATION 4, CA US",37.9994,-121.3177,3.7,1992,29.0,106.0,62.5,76.3,48.6,59.14743083003952
241,USR0000CBUR,"BURNS CANYON CALIFORNIA, CA US",34.2103,-116.6339,1828.8,1992,18.0,92.0,56.1,64.1,48.0,59.14743083003952
242,USC00047470,"RIVERSIDE FIRE STATION 3, CA US",33.9511,-117.38799999999999,256.0,1992,,,,,,59.14743083003952
243,USS0019L24S,"HEAVENLY VALLEY, CA US",38.92,-119.92,2615.8,1992,-3.0,78.0,39.6,50.6,28.6,59.14743083003952
244,USS0020K04S,"INDEPENDENCE CAMP, CA US",39.45,-120.29,2134.5,1992,0.0,90.0,43.6,58.0,29.1,59.14743083003952
245,USR0000CASC,"ASH CREEK CALIFORNIA, CA US",41.2769,-121.9794,975.4,1992,4.0,98.0,49.4,67.0,31.8,59.14743083003952
246,USW00003154,"CAMP PENDLETON MCAS, CA US",33.3,-117.35,22.9,1992,,,,,,59.14743083003952
247,USR0000CASH,"ASH VALLEY CALIFORNIA, CA US",41.0519,-120.6861,1554.5,1992,-12.0,96.0,47.3,62.2,32.3,59.14743083003952
248,USC00047109,"POTTER VALLEY POWERHOUSE, CA US",39.3619,-123.1286,310.3,1992,,,,,,59.14743083003952
249,USC00048317,"SNOW CREEK UPPER, CA US",33.8725,-116.67971999999999,591.3,1992,,,,,,59.14743083003952
250,USC00046252,"NORTH FORK RANGER STATION, CA US",37.2329,-119.5097,806.2,1992,,,,,,59.14743083003952
251,USR0000CBUT,"BUTTE MEADOWS CALIFORNIA, CA US",40.0789,-121.5039,1511.8,1992,8.0,97.0,50.9,63.0,38.7,59.14743083003952
252,USC00046498,"ORICK PRAIRIE, CA US",41.3619,-124.0191,48.8,1992,29.0,85.0,53.0,63.7,42.4,59.14743083003952
253,USC00046136,"NEVADA CITY, CA US",39.2466,-121.0008,847.6,1992,,,,,,59.14743083003952
254,USC00046390,"OCOTILLO 2, CA US",32.746109999999994,-116.00056000000001,125.0,1992,,,,,,59.14743083003952
255,USC00049660,"WHITTIER CITY YARD FC106C, CA US",33.9758,-118.0222,135.9,1992,,,,,,59.14743083003952
256,USC00049781,"WOODLAND 1 WNW, CA US",38.6829,-121.794,20.4,1992,,,,,,59.14743083003952
257,USR0000CKET,"KETTLEMAN HILLS CALIFORNIA, CA US",36.0333,-120.0569,246.9,1992,27.0,105.0,66.4,75.3,57.5,59.14743083003952
258,USS0020K05S,"INDEPENDENCE LAKE, CA US",39.43,-120.31,2545.7,1992,,,,,,59.14743083003952
259,USS0020L02S,"RUBICON NUMBER 2, CA US",39.0,-120.13,2343.6,1992,,,,,,59.14743083003952
260,USC00046144,"NEWARK, CA US",37.5147,-122.0325,3.0,1992,30.0,91.0,59.7,69.9,49.5,59.14743083003952
261,USC00047473,"RIVERSIDE CITRUS EXPERIMENTAL, CA US",33.96694,-117.36138999999999,300.5,1992,31.0,107.0,66.0,79.5,52.6,59.14743083003952
262,USC00046027,"MUIR WOODS, CA US",37.8977,-122.5688,67.1,1992,,,,,,59.14743083003952
263,USC00049671,"WILDROSE R S, CA US",36.26556,-117.18528,1249.7,1992,19.0,102.0,60.0,72.7,47.3,59.14743083003952
264,USC00049792,"WOODSIDE FIRE STATION 1, CA US",37.4286,-122.2561,115.8,1992,23.0,,,,44.9,59.14743083003952
265,USC00046162,"NEWHALL S FC32CE, CA US",34.3869,-118.5341,375.8,1992,,,,,,59.14743083003952
266,USC00047370,"REPRESA, CA US",38.6944,-121.1611,89.9,1992,,,,,,59.14743083003952
267,USC00048580,"STONYFORD, CA US",39.3752,-122.5461,356.6,1992,,,,,,59.14743083003952
268,USC00040738,"BIG BAR 4 E, CA US",40.7405,-123.2077,381.9,1992,,,,,,59.14743083003952
269,USC00041948,"COLUSA 2 SSW, CA US",39.1875,-122.0269,15.2,1992,28.0,108.0,62.5,75.8,49.2,59.14743083003952
270,USR0000CKEE,"KEENWILD CALIFORNIA, CA US",33.6667,-116.7667,1499.6,1992,20.0,97.0,57.7,71.1,44.4,59.14743083003952
271,USC00040850,"BLACK MOUNTAIN 2 WSW, CA US",37.31667,-122.16667,646.2,1992,,,,,,59.14743083003952
272,USC00048218,"SIERRAVILLE RANGER STATION, CA US",39.5833,-120.3705,1516.4,1992,,,,,,59.14743083003952
273,USR0000CMIL,"MILL CREEK ANF CALIFORNIA, CA US",34.3903,-118.0825,1530.4,1992,26.0,104.0,63.4,73.5,53.4,59.14743083003952
274,USC00041700,"CHESTER, CA US",40.3033,-121.2422,1380.7,1992,,,,,,59.14743083003952
275,USC00045064,"LOMPOC, CA US",34.6538,-120.4513,22.9,1992,,,,,,59.14743083003952
276,USC00046154,"NEW CUYAMA FIRE STATION, CA US",34.9455,-119.6827,658.4,1992,22.0,,,,44.6,59.14743083003952
277,USR0000CMID,"MID HILLS CALIFORNIA, CA US",35.1231,-115.4114,1649.9,1992,13.0,96.0,55.5,66.5,44.5,59.14743083003952
278,USC00046399,"OJAI, CA US",34.4477,-119.2275,227.1,1992,25.0,,,,47.7,59.14743083003952
279,USC00049785,"WOODLAND HILLS PIERCE COLLEGE, CA US",34.1819,-118.5744,240.8,1992,26.0,,,,50.6,59.14743083003952
280,USC00049560,"WESTHAVEN, CA US",36.22722,-119.99667,86.9,1992,,,,,,59.14743083003952
281,USC00049440,"WARM SPRINGS DAM, CA US",38.71611,-122.9975,68.3,1992,25.0,105.0,59.7,75.1,44.4,59.14743083003952
282,USR0000CDVR,"DEVORE CALIFORNIA, CA US",34.2211,-117.4044,627.0,1992,36.0,102.0,64.0,73.3,54.8,59.14743083003952
283,USC00048351,"SONOMA, CA US",38.2994,-122.4622,29.6,1992,27.0,,,,46.2,59.14743083003952
284,USC00041715,"CHICO UNIVERSITY FARM, CA US",39.6911,-121.8211,56.4,1992,25.0,108.0,62.4,76.2,48.6,59.14743083003952
285,USC00042805,"ELSINORE, CA US",33.686,-117.3458,386.5,1992,,,,,,59.14743083003952
286,USC00040741,"BIG BEAR LAKE, CA US",34.243,-116.917,2058.3,1992,7.0,84.0,47.0,61.1,32.8,59.14743083003952
287,USC00040983,"BORREGO DESERT PARK, CA US",33.2559,-116.4036,246.9,1992,31.0,114.0,72.9,87.4,58.4,59.14743083003952
288,USC00042920,"EXCHEQUER DAM, CA US",37.585,-120.2672,134.7,1992,,,,,,59.14743083003952
289,USC00048587,"STONY GORGE RESERVOIR, CA US",39.5861,-122.5341,243.8,1992,21.0,110.0,61.0,76.4,45.7,59.14743083003952
290,USC00046165,"NEWHALL, CA US",34.36667,-118.56667,426.7,1992,26.0,108.0,64.3,77.5,51.1,59.14743083003952
291,USC00047253,"RANDSBURG, CA US",35.3692,-117.6525,1088.1,1992,24.0,103.0,62.8,74.3,51.3,59.14743083003952
292,USC00049431,"WALNUT NI FC102C, CA US",34.001670000000004,-117.86583,148.7,1992,,,,,,59.14743083003952
293,USC00046168,"NEWMAN, CA US",37.2811,-121.0177,27.4,1992,24.0,105.0,63.3,77.1,49.5,59.14743083003952
294,USW00093193,"FRESNO YOSEMITE INTERNATIONAL, CA US",36.78,-119.7194,101.5,1992,29.0,108.0,65.5,77.8,53.2,59.14743083003952
295,USR0000CLDR,"LADDER BUTTE CALIFORNIA, CA US",40.8072,-121.2967,1752.6,1992,,,,,,59.14743083003952
296,USC00049452,"WASCO, CA US",35.5892,-119.352,88.7,1992,27.0,,,,51.2,59.14743083003952
297,USC00049694,"WILLOW CREEK 1 NW, CA US",40.9466,-123.6363,141.4,1992,,,,,,59.14743083003952
298,USC00047150,"PRIEST VALLEY, CA US",36.18833,-120.69528000000001,701.0,1992,18.0,105.0,57.5,74.8,40.2,59.14743083003952
299,USC00041967,"CONCORD WASTEWATER PLANT, CA US",37.9833,-122.0692,12.2,1992,31.0,100.0,62.6,73.8,51.5,59.14743083003952
300,USR0000CSRS,"SANTA ROSA CALIFORNIA, CA US",38.4786,-122.7119,175.6,1992,29.0,,,,48.5,59.14743083003952
301,USC00041606,"CECILVILLE, CA US",41.14167,-123.13917,704.1,1992,20.0,107.0,55.9,71.4,40.5,59.14743083003952
302,USR0000CTUO,"GAYLOR MEADOW CALIFORNIA, CA US",37.8683,-119.3183,2825.5,1992,-12.0,77.0,38.7,53.9,23.6,59.14743083003952
303,USC00042934,"FAIRFIELD, CA US",38.2736,-122.0677,12.2,1992,,103.0,,74.2,,59.14743083003952
304,USC00049325,"VICTORVILLE, CA US",34.52918,-117.29288000000001,877.8,1992,18.0,107.0,61.1,77.5,44.6,59.14743083003952
305,USC00046175,"NEWPORT BEACH HARBOR, CA US",33.6031,-117.8836,3.0,1992,38.0,86.0,62.5,67.4,57.5,59.14743083003952
306,USS0019L17S,"LOBDELL LAKE, CA US",38.44,-119.37,2814.2,1992,-7.0,81.0,39.4,52.8,26.0,59.14743083003952
307,USC00048353,"SONORA, CA US",37.9672,-120.3872,510.5,1992,,,,,,59.14743083003952
308,USS0019L05S,"BLUE LAKES, CA US",38.61,-119.92,2455.8,1992,-8.0,83.0,40.3,52.4,28.2,59.14743083003952
309,USC00049200,"VACAVILLE, CA US",38.395559999999996,-121.96083,33.5,1992,24.0,109.0,63.1,77.4,48.8,59.14743083003952
310,USC00049684,"WILLITS 1 NE, CA US",39.4194,-123.3425,412.4,1992,23.0,100.0,55.0,70.8,39.3,59.14743083003952
311,USC00048490,"STANDISH HICKEY ST PK, CA US",39.87778,-123.7275,260.0,1992,,,,,,59.14743083003952
312,USR0000CMER,"MERCED RIVER CALIFORNIA, CA US",37.6528,-120.0883,792.5,1992,25.0,103.0,63.1,73.5,52.6,59.14743083003952
313,USC00046074,"NAPA STATE HOSPITAL, CA US",38.2777,-122.2647,10.7,1992,28.0,98.0,59.9,72.0,47.8,59.14743083003952
314,USS0020L10S,"FALLEN LEAF, CA US",38.93,-120.05,1900.7,1992,,,,,,59.14743083003952
315,USC00046194,"NICOLAUS NUMBER 2, CA US",38.9261,-121.5447,13.1,1992,,,,,,59.14743083003952
316,USC00043914,"HENSHAW DAM, CA US",33.2372,-116.7614,823.0,1992,,,,,,59.14743083003952
317,USS0020K25S,"WARD CREEK NUMBER 3, CA US",39.14,-120.22,2028.4,1992,,89.0,,59.2,,59.14743083003952
318,USS0020K13S,"TRUCKEE NUMBER 2, CA US",39.3,-120.18,1983.9,1992,,95.0,,61.8,,59.14743083003952
319,USR0000CROU,"ROUND MOUNTAIN, CA US",41.4272,-121.4639,1602.6,1992,15.0,99.0,50.3,59.3,41.2,59.14743083003952
320,USR0000CSQU,"SQUAW LAKE CALIFORNIA, CA US",32.9083,-114.4944,91.4,1992,36.0,116.0,76.5,88.4,64.6,59.14743083003952
321,USR0000CSQS,"SQUAW SPRINGS CALIFORNIA, CA US",35.37,-117.5683,1103.4,1992,29.0,103.0,64.3,73.3,55.2,59.14743083003952
322,USR0000CCRZ,"CRAZY PEAK CALIFORNIA, CA US",41.9919,-123.6036,1210.1,1992,21.0,99.0,53.1,64.9,41.2,59.14743083003952
323,USR0000CSRI,"SANTA ROSA ISLAND CALIFORNIA, CA US",33.9778,-120.0778,395.6,1992,37.0,88.0,56.6,63.1,50.2,59.14743083003952
324,USC00040521,"BARSTOW, CA US",34.8927,-117.0219,676.7,1992,,,,,,59.14743083003952
325,USC00042941,"FAIRMONT, CA US",34.705,-118.4297,932.7,1992,,101.0,,70.2,,59.14743083003952
326,USC00041614,"CEDARVILLE, CA US",41.5301,-120.1791,1428.9,1992,-1.0,101.0,50.2,64.2,36.3,59.14743083003952
327,USC00049699,"WILLOWS 6 W, CA US",39.52316,-122.3048,71.3,1992,,,,,,59.14743083003952
328,USC00047050,"POMONA FAIRPLEX, CA US",34.0816,-117.7658,304.5,1992,29.0,,,,48.7,59.14743083003952
329,USC00048380,"SO ENTRANCE YOSEMITE N.P., CA US",37.5122,-119.6331,1538.3,1992,11.0,87.0,48.6,60.0,37.2,59.14743083003952
330,USC00049351,"VINTON, CA US",39.8056,-120.1858,1508.8,1992,,,,,,59.14743083003952
331,USC00049473,"WATSONVILLE WATERWORKS, CA US",36.9308,-121.7691,29.0,1992,29.0,93.0,58.7,69.1,48.2,59.14743083003952
332,USC00040779,"BIG PINES PARK FC83B, CA US",34.38333,-117.68333,2086.4,1992,,,,,,59.14743083003952
333,USC00043800,"HARRY L. ENGLEBRIGHT DAM, CA US",39.2372,-121.2666,243.8,1992,,,,,,59.14743083003952
334,USC00042713,"EL CENTRO 2 SSW, CA US",32.7669,-115.5617,-9.1,1992,33.0,,,,59.1,59.14743083003952
335,USC00049105,"TWIN LAKES, CA US",38.70861,-120.04028000000001,2438.4,1992,,,,,,59.14743083003952
336,USC00048014,"SAUGUS POWER PLANT 1, CA US",34.5894,-118.4547,636.7,1992,,,,,,59.14743083003952
337,USC00048135,"SHASTA DAM, CA US",40.7141,-122.4161,327.7,1992,28.0,107.0,63.9,74.1,53.7,59.14743083003952
338,USS0019L03S,"HAGAN S MEADOW, CA US",38.85,-119.94,2370.1,1992,,84.0,,56.5,,59.14743083003952
339,USC00046197,"NILAND, CA US",33.2775,-115.5239,-18.3,1992,,,,,,59.14743083003952
340,USS0019L39S,"SPRATT CREEK, CA US",38.67,-119.82,1863.9,1992,,88.0,,61.1,,59.14743083003952
341,USC00049345,"VINCENT, CA US",34.4883,-118.1419,962.3,1992,,,,,,59.14743083003952
342,USR0000CBOR,"BORON CALIFORNIA, CA US",35.0767,-117.585,881.8,1992,27.0,105.0,64.4,75.7,53.1,59.14743083003952
343,USR0000CLAP,"LA PANZA CALIFORNIA, CA US",35.3811,-120.1875,496.8,1992,18.0,107.0,59.0,76.1,42.0,59.14743083003952
344,USC00049001,"TRACY PUMPING PLANT, CA US",37.79589,-121.58318999999999,18.6,1992,,,,,,59.14743083003952
345,USC00049122,"UKIAH, CA US",39.1466,-123.2102,193.9,1992,27.0,104.0,60.7,74.5,46.9,59.14743083003952
346,USS0019L13S,"VIRGINIA LAKES RIDGE, CA US",38.07,-119.23,2878.8,1992,,,,,,59.14743083003952
347,USC00041758,"CHULA VISTA, CA US",32.64,-117.0858,17.1,1992,,,,,,59.14743083003952
348,USS0020K27S,"TAHOE CITY CROSS, CA US",39.17,-120.15,2071.7,1992,,,,,,59.14743083003952
349,USC00042728,"ELECTRA P H, CA US",38.33056,-120.67056000000001,217.9,1992,,,,,,59.14743083003952
350,USC00043939,"HETCH HETCHY, CA US",37.9613,-119.78299999999999,1179.6,1992,18.0,93.0,55.3,66.7,43.8,59.14743083003952
351,USS0020K03S,"INDEPENDENCE CREEK, CA US",39.49,-120.28,1967.8,1992,,92.0,,60.4,,59.14743083003952
352,USR0000CSOM,"SOMES BAR CALIFORNIA, CA US",41.39,-123.4958,280.4,1992,27.0,111.0,60.4,74.4,46.3,59.14743083003952
353,USC00041878,"COARSEGOLD 1 SW, CA US",37.25028,-119.70528,679.7,1992,,,,,,59.14743083003952
354,USS0019L38S,"LEAVITT LAKE, CA US",38.28,-119.61,2931.3,1992,,,,,,59.14743083003952
355,USC00041990,"COPCO NUMBER 1 DAM, CA US",41.9797,-122.3378,823.9,1992,,,,,,59.14743083003952
356,USS0019L40S,"MONITOR PASS, CA US",38.67,-119.61,2532.9,1992,0.0,82.0,41.8,53.7,29.8,59.14743083003952
357,USR0000CMSA,"MARIPOSA CALIFORNIA, CA US",37.5042,-119.9869,680.0,1992,24.0,101.0,60.2,72.7,47.7,59.14743083003952
358,USC00026250,"PARKER, AZ US",34.1547,-114.2908,128.0,1992,32.0,114.0,73.3,86.7,60.0,59.14743083003952
359,USC00045449,"MCCLOUD, CA US",41.2514,-122.1383,999.7,1992,8.0,101.0,51.9,67.6,36.1,59.14743083003952
360,USC00046657,"PALOMAR MOUNTAIN OBSERVATORY, CA US",33.378,-116.84,1691.6,1992,,,,,,59.14743083003952
361,USC00048839,"TEJON RANCHO, CA US",35.0233,-118.7497,434.3,1992,17.0,107.0,61.9,77.5,46.3,59.14743083003952
362,USC00047749,"SAN DIMAS FIRE FC 95, CA US",34.1052,-117.8019,292.0,1992,,,,,,59.14743083003952
363,USC00043261,"FRIANT GOVERNMENT CAMP, CA US",36.9969,-119.7072,125.0,1992,26.0,109.0,63.6,78.2,49.0,59.14743083003952
364,USC00042294,"DAVIS 2 WSW EXPERIMENTAL FARM, CA US",38.5349,-121.7761,18.3,1992,,105.0,,75.7,,59.14743083003952
365,USC00043384,"GEORGETOWN RANGER STATION, CA US",38.933,-120.8008,914.7,1992,,,,,,59.14743083003952
366,USC00046896,"PINE FLAT DAM, CA US",36.821,-119.3374,187.5,1992,,,,,,59.14743083003952
367,USC00046773,"PEARBLOSSOM, CA US",34.5025,-117.8969,945.2,1992,24.0,103.0,62.3,74.5,50.2,59.14743083003952
368,USR0000CWEE,"WEED AIRPORT CALIFORNIA, CA US",41.4789,-122.4539,893.1,1992,,103.0,,66.9,,59.14743083003952
369,USC00043038,"FIDDLETOWN DEXTER RANCH, CA US",38.5236,-120.7061,658.4,1992,,,,,,59.14743083003952
370,USC00048606,"STRAWBERRY VALLEY, CA US",39.563,-121.1077,1160.7,1992,15.0,96.0,53.5,66.0,41.1,59.14743083003952
371,USR0000CKNO,"KNOXVILLE CREEK CALIFORNIA, CA US",38.8619,-122.4172,670.6,1992,26.0,102.0,59.9,71.4,48.4,59.14743083003952
372,USC00048967,"TOPANGA PTRL STATION FC6, CA US",34.0841,-118.5988,227.1,1992,,,,,,59.14743083003952
373,USC00043157,"FORT BIDWELL, CA US",41.8715,-120.1574,1444.4,1992,-4.0,100.0,49.7,63.7,35.8,59.14743083003952
374,USC00046663,"PALOS VERDES ES FC43D, CA US",33.7997,-118.391,67.1,1992,,,,,,59.14743083003952
375,USC00047874,"SAN PASQUAL ANIMAL PARK, CA US",33.0955,-116.9975,128.0,1992,25.0,,,,51.0,59.14743083003952
376,USR0000CWES,"WESTWOOD CALIFORNIA, CA US",40.3067,-120.9,1767.8,1992,11.0,92.0,48.6,57.3,39.9,59.14743083003952
377,USC00042081,"COVELO, CA US",39.8158,-123.2444,430.7,1992,20.0,105.0,58.2,74.2,42.1,59.14743083003952
378,USC00047404,"RICHARDSON GROVE STATE PARK, CA US",40.026109999999996,-123.79306000000001,153.3,1992,,,,,,59.14743083003952
379,USC00047767,"SAN FRANCISCO OCEANSIDE, CA US",37.728,-122.5052,2.4,1992,,,,,,59.14743083003952
380,USC00047888,"SANTA ANA FIRE STATION, CA US",33.7442,-117.8667,41.1,1992,36.0,99.0,67.0,77.0,57.0,59.14743083003952
381,USC00047641,"SAGEHEN CREEK, CA US",39.431670000000004,-120.24056000000002,1931.5,1992,-11.0,91.0,42.6,59.0,26.3,59.14743083003952
382,USC00043161,"FORT BRAGG 5 N, CA US",39.5091,-123.7566,37.5,1992,31.0,81.0,55.2,64.0,46.4,59.14743083003952
383,USC00047880,"SAN RAFAEL CIVIC CEN, CA US",37.998329999999996,-122.53721999999999,36.6,1992,23.0,95.0,59.3,69.8,48.9,59.14743083003952
384,USC00042198,"CRYSTAL LAKE FC238C, CA US",34.3175,-117.8419,1629.2,1992,,,,,,59.14743083003952
385,USC00047643,"SAINT HELENA, CA US",38.5066,-122.4713,68.6,1992,,,,,,59.14743083003952
386,USC00046675,"PANOCHE 2 W, CA US",36.6066,-120.8841,426.7,1992,,,,,,59.14743083003952
387,USC00042090,"COVINA CITY YARD FC387B, CA US",34.0918,-117.88011999999999,185.0,1992,,,,,,59.14743083003952
388,USC00045360,"MARKLEY COVE, CA US",38.4916,-122.1241,146.3,1992,,,,,,59.14743083003952
389,USC00043182,"FORT JONES RANGER STATION, CA US",41.6,-122.8478,830.6,1992,,,,,,59.14743083003952
390,USR0000CFAN,"FANCHER CREEK CALIFORNIA, CA US",36.8839,-119.4658,280.4,1992,,,,,,59.14743083003952
391,USR0000CHER,"HERNANDEZ CALIFORNIA, CA US",36.3825,-120.8558,1137.8,1992,24.0,98.0,58.9,67.4,50.4,59.14743083003952
392,USC00045118,"LOS BANOS, CA US",37.0563,-120.8666,36.6,1992,27.0,108.0,64.2,77.3,51.2,59.14743083003952
393,USC00045119,"LOS BANOS ARBURUA RANCH, CA US",36.8749,-120.9386,256.9,1992,,,,,,59.14743083003952
394,USC00046329,"OAK KNOLL R S NUMBER 2, CA US",41.85,-122.88333,518.2,1992,,,,,,59.14743083003952
395,USC00047779,"SAN GABRIEL DAM FC425B E, CA US",34.2052,-117.8608,451.4,1992,,,,,,59.14743083003952
396,USC00046569,"OXNARD, CA US",34.19806,-119.17528,14.9,1992,39.0,90.0,62.6,70.6,54.6,59.14743083003952
397,USC00045356,"MARKLEEVILLE, CA US",38.69194,-119.78028,1685.5,1992,,92.0,,63.2,,59.14743083003952
398,USC00045598,"MIDDLETOWN, CA US",38.74774,-122.62583000000001,341.7,1992,,,,,,59.14743083003952
399,USC00047776,"SAN GABRIEL CANYON PH, CA US",34.1553,-117.9078,226.8,1992,,,,,,59.14743083003952
400,USC00045233,"MADERA, CA US",36.9539,-120.0378,82.3,1992,28.0,108.0,63.4,76.6,50.1,59.14743083003952
401,USC00046685,"PARADISE, CA US",39.7538,-121.6241,533.4,1992,,104.0,,73.3,,59.14743083003952
402,USC00044025,"HOLLISTER 2, CA US",36.8483,-121.4213,83.8,1992,27.0,98.0,60.0,73.0,47.0,59.14743083003952
403,USC00043191,"FORT ROSS, CA US",38.515,-123.2447,34.1,1992,,,,,,59.14743083003952
404,USC00047306,"REDLANDS, CA US",34.037,-117.1948,429.8,1992,30.0,107.0,66.1,79.1,53.0,59.14743083003952
405,USC00048758,"TAHOE CITY, CA US",39.1678,-120.1428,1898.9,1992,0.0,90.0,46.2,60.2,32.2,59.14743083003952
406,USC00047668,"SALINAS NUMBER 2, CA US",36.6594,-121.6663,13.7,1992,32.0,92.0,59.8,69.5,50.2,59.14743083003952
407,USC00048999,"TRACY CARBONA, CA US",37.6819,-121.3466,41.1,1992,,,,,,59.14743083003952
408,USR0000CBZE,"BRAZIE RANCH CALIFORNIA, CA US",41.6853,-122.5942,914.4,1992,20.0,104.0,56.1,68.3,43.9,59.14743083003952
409,USC00048873,"TERMO 1 E, CA US",40.86667,-120.43333,1615.4,1992,-14.0,97.0,45.8,62.5,29.1,59.14743083003952
410,USC00045120,"LOS BANOS DET RESV, CA US",36.98972,-120.92971999999999,124.1,1992,26.0,106.0,64.2,75.7,52.7,59.14743083003952
411,USR0000CMOJ,"MOJAVE RIVER SINK CALIFORNIA, CA US",35.0531,-116.0794,289.6,1992,15.0,118.0,70.7,86.9,54.5,59.14743083003952
412,USC00046336,"OAKLAND MUSEUM, CA US",37.7983,-122.2642,9.1,1992,,,,,,59.14743083003952
413,USC00046699,"PARKER RESRVOIR, CA US",34.2903,-114.1708,224.9,1992,,116.0,,85.7,,59.14743083003952
414,USC00045123,"LOS GATOS, CA US",37.2319,-121.9592,111.3,1992,28.0,96.0,60.4,72.6,48.3,59.14743083003952
415,USC00044278,"INYOKERN, CA US",35.6513,-117.8213,740.7,1992,19.0,109.0,64.6,80.7,48.5,59.14743083003952
416,USC00047785,"SAN GABRIEL FIRE DEPARTMENT, CA US",34.0842,-118.1003,110.6,1992,32.0,104.0,67.3,80.7,53.9,59.14743083003952
417,USC00040924,"BLYTHE, CA US",33.6131,-114.5972,81.7,1992,30.0,118.0,72.7,87.1,58.3,59.14743083003952
418,USS0020L06S,"ECHO PEAK, CA US",38.85,-120.08,2337.8,1992,,85.0,,55.5,,59.14743083003952
419,USC00047672,"SALINAS DAM, CA US",35.3372,-120.5038,424.3,1992,,,,,,59.14743083003952
420,USR0000CWAL,"WALKER PASS CALIFORNIA, CA US",35.6647,-118.0569,1698.3,1992,18.0,102.0,58.0,70.0,46.0,59.14743083003952
421,USC00044288,"IOWA HILL, CA US",39.118,-120.8405,944.9,1992,,,,,,59.14743083003952
422,USC00045378,"MARTINEZ WATER PLANT, CA US",38.0131,-122.1142,12.2,1992,30.0,103.0,61.1,73.7,48.5,59.14743083003952
423,USR0000CWAR,"WARM SPRINGS CALIFORNIA, CA US",34.5958,-118.5786,1502.7,1992,27.0,97.0,58.7,66.8,50.6,59.14743083003952
424,USR0000CQUA,"QUARTZ HILL CALIFORNIA, CA US",41.5992,-122.9336,1287.8,1992,20.0,101.0,53.7,63.8,43.6,59.14743083003952
425,USC00041907,"COLEMAN FISHERIES STATION, CA US",40.4,-122.1433,128.0,1992,,,,,,59.14743083003952
426,USC00040819,"BISHOP CRK INTAKE 2, CA US",37.248000000000005,-118.5813,2485.3,1992,,,,,,59.14743083003952
427,USC00040931,"BOCA, CA US",39.3886,-120.0936,1699.3,1992,-22.0,96.0,43.6,64.3,22.9,59.14743083003952
428,USC00045385,"MARYSVILLE, CA US",39.1458,-121.5852,17.4,1992,,,,,,59.14743083003952
429,USC00044297,"IRON MOUNTAIN, CA US",34.1472,-115.1219,281.0,1992,,116.0,,86.3,,59.14743083003952
430,USC00045026,"LODGEPOLE, CA US",36.6044,-118.7325,2052.8,1992,,,,,,59.14743083003952
431,USC00045147,"LOS PRIETOS RANGER STATION, CA US",34.5444,-119.7913,312.1,1992,,,,,,59.14743083003952
432,USC00046599,"PACIFICA 4 SSE, CA US",37.59167,-122.47166999999999,144.8,1992,34.0,,,,50.5,59.14743083003952
433,USC00046597,"PACIFIC HOUSE, CA US",38.7583,-120.50299999999999,1051.6,1992,,,,,,59.14743083003952
434,USC00049621,"WHISKEYTOWN RESERVOIR, CA US",40.6116,-122.52799999999999,394.7,1992,26.0,107.0,61.4,74.2,48.6,59.14743083003952
435,USC00049742,"WINTERS, CA US",38.5252,-121.9777,41.1,1992,28.0,110.0,64.3,78.2,50.5,59.14743083003952
436,USR0000COPA,"OPAL MOUNTAIN CALIFORNIA, CA US",35.1542,-117.1756,987.6,1992,28.0,103.0,64.3,74.9,53.6,59.14743083003952
437,USC00047581,"ROUND MOUNTAIN, CA US",40.7955,-121.935,640.1,1992,,,,,,59.14743083003952
438,USC00041912,"COLFAX, CA US",39.0911,-120.948,725.4,1992,22.0,102.0,60.0,73.6,46.5,59.14743083003952
439,USR0000CLIN,"LINCOLN CALIFORNIA, CA US",38.8825,-121.2683,61.0,1992,22.0,107.0,62.6,75.8,49.4,59.14743083003952
440,USC00041916,"COLGATE POWERHOUSE, CA US",39.3308,-121.1922,181.4,1992,,,,,,59.14743083003952
441,USC00047339,"REDWOOD CITY, CA US",37.4767,-122.2386,9.4,1992,29.0,96.0,60.5,72.0,49.0,59.14743083003952
442,USC00040943,"BODIE CALIFORNIA STATE HISTORIC PARK, CA US",38.2119,-119.0142,2551.2,1992,-18.0,85.0,39.6,58.5,20.8,59.14743083003952
443,USR0000CPRD,"PANOCHE ROAD CALIFORNIA, CA US",36.7269,-120.7658,619.4,1992,26.0,105.0,65.4,76.1,54.6,59.14743083003952
444,USC00046006,"MOUNT WILSON CBS, CA US",34.2308,-118.0711,1740.4,1992,,,,,,59.14743083003952
0,USR0000CDIA,"DIABLO GRANDE CALIFORNIA, CA US",37.3292,-121.2939,563.9,2005,30.0,104.0,61.6,71.1,52.2,57.571627906976715
1,USR0000CTHO,"THOMES CREEK CALIFORNIA, CA US",39.8644,-122.6097,317.0,2005,32.0,114.0,64.6,75.5,53.6,57.571627906976715
2,USC00049099,"TWENTYNINE PALMS, CA US",34.128,-116.0369,602.0,2005,31.0,,,,56.8,57.571627906976715
3,USR0000CRDR,"READER RANCH CALIFORNIA, CA US",39.3036,-121.1172,599.8,2005,29.0,105.0,60.6,73.0,48.2,57.571627906976715
4,USR0000CTHS,"THOUSAND OAKS CALIFORNIA, CA US",34.21,-118.87,242.3,2005,37.0,95.0,61.4,70.6,52.2,57.571627906976715
5,USR0000CBEA,"BEAR PEAK CALIFORNIA, CA US",35.8842,-118.0517,2507.9,2005,14.0,85.0,47.0,54.6,39.4,57.571627906976715
6,USR0000CABS,"ARBUCKLE BASIN CALIFORNIA, CA US",40.3983,-122.8333,579.1,2005,,,,,,57.571627906976715
7,USR0000CSFD,"SANTA FE DAM CALIFORNIA, CA US",34.1208,-117.9458,152.4,2005,41.0,106.0,67.0,80.5,53.5,57.571627906976715
8,USR0000CBDY,"BRADLEY CALIFORNIA, CA US",35.8644,-120.8031,163.7,2005,21.0,112.0,62.5,80.8,44.1,57.571627906976715
9,USC00041244,"BUTTONWILLOW, CA US",35.4028,-119.47,68.6,2005,28.0,106.0,64.6,77.7,51.6,57.571627906976715
10,USC00047902,"SANTA BARBARA, CA US",34.4167,-119.6844,4.9,2005,35.0,98.0,62.1,70.2,53.9,57.571627906976715
11,USR0000CBEN,"BENTON CALIFORNIA, CA US",37.8431,-118.4778,1661.2,2005,0.0,103.0,52.4,69.5,35.3,57.571627906976715
12,USC00042214,"CULVER CITY, CA US",34.005,-118.4139,28.0,2005,,,,,,57.571627906976715
13,USC00042456,"DOBBINS 1 S, CA US",39.3575,-121.2011,499.9,2005,,,,,,57.571627906976715
14,USR0000CGOR,"GORDON CALIFORNIA, CA US",40.7586,-120.8961,1889.8,2005,,,,,,57.571627906976715
15,USC00044997,"LIVERMORE, CA US",37.6922,-121.7691,146.3,2005,30.0,104.0,61.1,73.3,48.9,57.571627906976715
16,USC00043669,"GROVELAND 2, CA US",37.8444,-120.2258,853.4,2005,19.0,101.0,55.5,69.4,41.5,57.571627906976715
17,USR0000CREA,"REDDING AIRPORT CALIFORNIA, CA US",40.5158,-122.2906,152.4,2005,24.0,114.0,62.9,76.6,49.2,57.571627906976715
18,USR0000CWOF,"WOFFORD HEIGHTS CALIFORNIA, CA US",35.7217,-118.4989,960.1,2005,25.0,108.0,60.6,73.9,47.3,57.571627906976715
19,USR0000CJUN,"JUNIPER CREEK CALIFORNIA, CA US",41.3322,-120.4725,1332.6,2005,4.0,99.0,49.0,63.4,34.7,57.571627906976715
20,USR0000CJUL,"JULIAN CALIFORNIA, CA US",33.0758,-116.5908,1292.4,2005,29.0,98.0,58.0,68.4,47.6,57.571627906976715
21,USR0000CGOO,"GOOSE VALLEY CALIFORNIA, CA US",33.0736,-116.8458,466.3,2005,,,,,,57.571627906976715
22,USR0000CLYT,"LYTLE CREEK CALIFORNIA, CA US",34.2339,-117.4803,851.0,2005,30.0,107.0,62.3,74.9,49.7,57.571627906976715
23,USC00042574,"DUNSMUIR TREATMENT PLANT, CA US",41.1833,-122.2736,661.4,2005,21.0,104.0,54.5,68.8,40.2,57.571627906976715
24,USR0000CSEC,"SECRET TOWN CALIFORNIA, CA US",39.1836,-120.8847,861.4,2005,26.0,106.0,58.4,72.4,44.4,57.571627906976715
25,USW00023213,"SANTA ROSA SONOMA CO AIRPORT, CA US",38.5038,-122.8102,34.7,2005,26.0,101.0,57.8,70.6,44.9,57.571627906976715
26,USC00044523,"KERN RIVER PH 3, CA US",35.7831,-118.4389,823.9,2005,24.0,108.0,61.0,76.8,45.2,57.571627906976715
27,USC00042467,"DONNER MEMORIAL ST PARK, CA US",39.3239,-120.2331,1809.6,2005,2.0,93.0,44.3,59.4,29.2,57.571627906976715
28,USC00046943,"PISMO BEACH, CA US",35.1597,-120.68299999999999,11.9,2005,,,,,,57.571627906976715
29,USC00040161,"ALTURAS, CA US",41.4901,-120.5437,1334.4,2005,,,,,,57.571627906976715
30,USC00044647,"LAGUNA BEACH, CA US",33.5453,-117.7813,13.4,2005,34.0,95.0,62.7,72.8,52.5,57.571627906976715
31,USC00047916,"SANTA CRUZ, CA US",36.98785,-121.99951999999999,21.3,2005,32.0,85.0,57.9,66.9,49.0,57.571627906976715
32,USC00046826,"PETALUMA AIRPORT, CA US",38.2577,-122.6077,6.1,2005,,,,,,57.571627906976715
33,USC00043551,"GRANT GROVE, CA US",36.73751,-118.96197,2005.6,2005,,88.0,,56.9,,57.571627906976715
34,USC00046940,"PIRU 2 ESE, CA US",34.4061,-118.7569,217.0,2005,,,,,,57.571627906976715
35,USC00044881,"LEE VINING, CA US",37.9567,-119.1194,2071.7,2005,10.0,92.0,47.2,59.4,35.0,57.571627906976715
36,USR0000CUHL,"UHL HOT SPRINGS, CA US",35.8889,-118.6333,1133.9,2005,26.0,102.0,57.6,69.7,45.4,57.571627906976715
37,USW00093210,"OROVILLE MUNICIPAL AIRPORT, CA US",39.49,-121.61833,57.9,2005,31.0,107.0,62.7,74.0,51.4,57.571627906976715
38,USR0000CSDD,"SADDLEBACK CALIFORNIA, CA US",39.6375,-120.8653,2033.0,2005,18.0,89.0,47.7,54.9,40.5,57.571627906976715
39,USC00046719,"PASADENA, CA US",34.1483,-118.1447,263.3,2005,,,,,,57.571627906976715
40,USR0000CSDC,"SODA CREEK CALIFORNIA, CA US",39.425,-122.9772,540.4,2005,,,,,,57.571627906976715
41,USR0000CBBR,"BIG BAR CALIFORNIA, CA US",40.7333,-123.2333,457.2,2005,29.0,112.0,58.1,72.5,43.6,57.571627906976715
42,USC00044534,"KETTLEMAN CITY, CA US",36.0067,-119.96,73.2,2005,26.0,108.0,64.3,77.4,51.1,57.571627906976715
43,USC00045866,"MORRO BAY FIRE DEPARTMENT, CA US",35.367,-120.8447,36.0,2005,37.0,87.0,56.5,63.6,49.4,57.571627906976715
44,USW00093209,"PASO ROBLES MUNICIPAL AIRPORT, CA US",35.6697,-120.6283,246.9,2005,25.0,106.0,60.5,76.4,44.6,57.571627906976715
45,USC00042598,"EAGLE MOUNTAIN, CA US",33.8089,-115.4508,296.6,2005,38.0,116.0,73.0,83.0,63.0,57.571627906976715
46,USC00044412,"JULIAN CDF, CA US",33.0763,-116.5925,1284.7,2005,,,,,,57.571627906976715
47,USR0000CHOR,"HORSE THIEF SPRINGS CALIFORNIA, CA US",35.7706,-115.9092,1524.0,2005,26.0,104.0,60.0,68.8,51.2,57.571627906976715
48,USC00045502,"MECCA FIRE STATION, CA US",33.5697,-116.073,-55.8,2005,29.0,121.0,74.8,89.9,59.7,57.571627906976715
49,USC00041149,"BUCKHORN, CA US",40.8669,-121.8463,1158.2,2005,,,,,,57.571627906976715
50,USC00047807,"SAN GREGORIO 2 SE, CA US",37.31167,-122.36166999999999,83.8,2005,29.0,85.0,55.2,65.1,45.3,57.571627906976715
51,USC00042239,"CUYAMACA, CA US",32.9897,-116.5872,1414.3,2005,16.0,97.0,54.2,66.6,41.8,57.571627906976715
52,USR0000CDGR,"DEVILS GARDEN CALIFORNIA, CA US",41.53,-120.6714,1530.7,2005,6.0,95.0,48.3,60.1,36.5,57.571627906976715
53,USC00044890,"LEMON COVE, CA US",36.3817,-119.0264,156.4,2005,31.0,109.0,64.5,78.7,50.4,57.571627906976715
54,USC00045983,"MOUNT SHASTA, CA US",41.3218,-122.3173,1102.5,2005,13.0,98.0,50.0,63.3,36.7,57.571627906976715
55,USR0000CHOO,"HOOPA CALIFORNIA, CA US",41.0478,-123.6714,114.3,2005,32.0,108.0,58.8,70.8,46.9,57.571627906976715
56,USW00093205,"MARYSVILLE YUBA CO AIRPORT, CA US",39.1019,-121.5677,18.9,2005,26.0,109.0,61.6,74.6,48.6,57.571627906976715
57,USW00093206,"SAN LUIS OBISPO MCCHESNEY FIELD, CA US",35.23722,-120.64138999999999,61.0,2005,32.0,100.0,59.5,71.0,48.1,57.571627906976715
58,USR0000CHOL,"HORSE LAKE CALIFORNIA, CA US",40.6306,-120.5028,1554.5,2005,3.0,97.0,46.2,60.8,31.6,57.571627906976715
59,USS0020H12S,"DISMAL SWAMP, CA US",41.99,-120.18,2243.3,2005,4.0,86.0,39.3,50.1,28.5,57.571627906976715
60,USR0000CSCI,"SANTA CRUZ ISLAND CALIFORNIA, CA US",33.9958,-119.7222,76.2,2005,37.0,99.0,61.7,73.6,49.7,57.571627906976715
61,USR0000CSCN,"SCORPION CALIFORNIA, CA US",41.1117,-122.6967,1341.1,2005,22.0,102.0,55.1,67.6,42.6,57.571627906976715
62,USR0000CBAR,"BARNABY CALIFORNIA, CA US",38.0281,-122.7022,378.0,2005,,,,,,57.571627906976715
63,USR0000CFIV,"FIVE MILE CALIFORNIA, CA US",35.8717,-117.9183,1264.9,2005,30.0,107.0,64.6,73.8,55.4,57.571627906976715
64,USR0000CDES,"DESCANSO CALIFORNIA, CA US",32.8569,-116.6222,1060.7,2005,26.0,103.0,59.8,74.5,45.1,57.571627906976715
65,USR0000CBAT,"BATTERSON CALIFORNIA, CA US",37.2319,-119.5083,963.2,2005,28.0,104.0,60.5,72.3,48.7,57.571627906976715
66,USR0000CYOL,"YOLLA BOLLA CALIFORNIA, CA US",40.3375,-123.0656,1378.8,2005,21.0,103.0,52.4,64.6,40.2,57.571627906976715
67,USC00041277,"CALAVERAS BIG TREES, CA US",38.2769,-120.3113,1431.0,2005,,90.0,,58.9,,57.571627906976715
68,USC00047933,"SANTA MARGARITA BOOST, CA US",35.3741,-120.6375,349.9,2005,,,,,,57.571627906976715
69,USC00043578,"GRATON, CA US",38.4305,-122.8647,61.0,2005,26.0,102.0,57.5,72.1,43.0,57.571627906976715
70,USC00046602,"PACOIMA DAM FC33A E, CA US",34.3294,-118.4005,472.4,2005,,,,,,57.571627906976715
71,USC00043452,"GLENDORA FC 287B, CA US",34.1472,-117.8472,284.4,2005,,,,,,57.571627906976715
72,USC00043573,"GRASS VALLEY NUMBER 2, CA US",39.2041,-121.068,731.5,2005,,,,,,57.571627906976715
73,USR0000CLVR,"LIVERMORE CALIFORNIA, CA US",37.7119,-121.8136,243.8,2005,,105.0,,72.2,,57.571627906976715
74,USR0000CHNM,"HUNTER MOUNTAIN CALIFORNIA, CA US",36.5625,-117.4736,2097.0,2005,13.0,96.0,50.6,61.7,39.5,57.571627906976715
75,USR0000CRAV,"RAVENDALE CALIFORNIA, CA US",40.7308,-120.3164,1614.8,2005,-7.0,96.0,46.8,60.4,33.3,57.571627906976715
76,USC00044422,"JUNCAL DAM, CA US",34.4908,-119.5069,688.8,2005,,,,,,57.571627906976715
77,USR0000CCDG,"CEDAR GROVE CALIFORNIA, CA US",36.7878,-118.6561,1438.7,2005,12.0,99.0,52.9,69.3,36.5,57.571627906976715
78,USR0000CSBB,"SANTA BARBARA ISLAND CALIFORNI, CA US",33.4833,-119.0333,53.6,2005,47.0,90.0,60.0,64.0,56.0,57.571627906976715
79,USW00024216,"RED BLUFF MUNICIPAL AIRPORT, CA US",40.1519,-122.2536,107.6,2005,28.0,113.0,62.5,75.0,50.0,57.571627906976715
80,USW00023129,"LONG BEACH DAUGHERTY AIRPORT, CA US",33.8116,-118.1463,9.4,2005,39.0,99.0,64.3,73.0,55.6,57.571627906976715
81,USW00023244,"MOFFETT FEDERAL AIRFIELD, CA US",37.4058,-122.0481,11.9,2005,32.0,94.0,60.0,69.2,50.9,57.571627906976715
82,USW00024215,"MOUNT SHASTA, CA US",41.3325,-122.33278,1077.5,2005,15.0,95.0,49.9,62.5,37.3,57.571627906976715
83,USW00024213,"EUREKA WEATHER FORECAST OFFICE WOODLEY ISLAND, CA US",40.8097,-124.1602,6.1,2005,31.0,74.0,53.4,59.8,47.0,57.571627906976715
84,USC00041288,"CALEXICO, CA US",32.6881,-115.4644,3.7,2005,,,,,,57.571627906976715
85,USC00044555,"KING CITY, CA US",36.2069,-121.1377,97.5,2005,27.0,,,,46.2,57.571627906976715
86,USC00041048,"BRAWLEY, CA US",32.9544,-115.5581,-30.5,2005,,,,,,57.571627906976715
87,USR0000CFIS,"FISH CREEK MOUNTAIN CALIFORNIA, CA US",32.9903,-116.0669,231.6,2005,46.0,121.0,77.6,86.8,68.4,57.571627906976715
88,USC00048917,"THREE RIVERS EDISON PH 1, CA US",36.465,-118.8619,347.5,2005,,,,,,57.571627906976715
89,USC00040192,"ANAHEIM, CA US",33.8647,-117.8425,71.6,2005,,,,,,57.571627906976715
90,USR0000CFIG,"FIGUEROA CALIFORNIA, CA US",34.7331,-120.0067,975.4,2005,34.0,99.0,62.1,71.0,53.2,57.571627906976715
91,USR0000CBAC,"BACKBONE CALIFORNIA, CA US",40.8892,-123.1422,1432.6,2005,23.0,100.0,53.1,63.3,43.0,57.571627906976715
92,USC00043463,"GLENNVILLE, CA US",35.7269,-118.7006,957.1,2005,19.0,,,,39.3,57.571627906976715
93,USC00045400,"MATHER, CA US",37.885,-119.8561,1374.6,2005,,,,,,57.571627906976715
94,USC00046610,"PAICINES 4 W, CA US",36.715,-121.34917,275.8,2005,,,,,,57.571627906976715
95,USC00047821,"SAN JOSE, CA US",37.3497,-121.9033,20.4,2005,32.0,97.0,61.2,70.4,51.9,57.571627906976715
96,USC00042012,"CORCORAN IRRIGATION DIST., CA US",36.0975,-119.5817,61.0,2005,26.0,106.0,64.6,77.8,51.3,57.571627906976715
97,USW00023130,"VAN NUYS AIRPORT, CA US",34.209720000000004,-118.48917,234.7,2005,38.0,103.0,65.1,76.3,53.8,57.571627906976715
98,USW00023254,"CONCORD BUCHANAN FIELD, CA US",37.9917,-122.055,5.5,2005,32.0,104.0,61.0,72.3,49.7,57.571627906976715
99,USR0000CHLD,"HOPLAND CALIFORNIA, CA US",39.0308,-123.0806,817.5,2005,32.0,98.0,57.6,66.3,49.0,57.571627906976715
100,USR0000CIND,"INDIAN WELL CALIFORNIA, CA US",41.7417,-121.5383,1453.9,2005,13.0,99.0,49.7,61.9,37.5,57.571627906976715
101,USR0000CCAR,"CARRIZO CALIFORNIA, CA US",35.0964,-119.7728,759.0,2005,32.0,105.0,62.7,73.3,52.1,57.571627906976715
102,USW00023259,"MONTEREY PENINSUL AIRPORT, CA US",36.5881,-121.8453,50.3,2005,34.0,83.0,56.8,64.3,49.4,57.571627906976715
103,USR0000CCAT,"CATHEYS VALLEY CALIFORNIA, CA US",37.4681,-120.1106,365.8,2005,32.0,106.0,63.2,74.3,52.1,57.571627906976715
104,USR0000CSAD,"SADDLEBACK BUTTE CALIFORNIA, CA US",34.6847,-117.8208,789.4,2005,15.0,111.0,60.9,78.0,43.7,57.571627906976715
105,USW00023258,"MODESTO CITY CO AIRPORT, CA US",37.6241,-120.9505,22.3,2005,30.0,107.0,63.0,74.9,51.0,57.571627906976715
106,USR0000CCAS,"CASE SPRINGS CALIFORNIA, CA US",33.445,-117.4181,707.1,2005,36.0,96.0,62.6,70.7,54.5,57.571627906976715
107,USR0000CSAC,"SACRAMENTO NWR CALIFORNIA, CA US",39.4172,-122.1825,36.6,2005,31.0,107.0,62.8,74.5,51.0,57.571627906976715
108,USW00023136,"CAMARILLO AIRPORT, CA US",34.21667,-119.08333,23.5,2005,34.0,100.0,61.3,70.9,51.7,57.571627906976715
109,USW00023257,"MERCED MUNICIPAL AIRPORT, CA US",37.28472,-120.51278,46.3,2005,28.0,107.0,62.2,75.1,49.2,57.571627906976715
110,USC00043357,"GASQUET RANGER STATION, CA US",41.8452,-123.9647,118.0,2005,,,,,,57.571627906976715
111,USC00047836,"SAN JUAN CANYON, CA US",33.5319,-117.5525,114.3,2005,,,,,,57.571627906976715
112,USC00047957,"SANTA PAULA, CA US",34.3119,-119.13306000000001,72.2,2005,,,,,,57.571627906976715
113,USC00042147,"CRESCENT CITY, CA US",41.7958,-124.2147,13.1,2005,28.0,81.0,52.7,59.9,45.4,57.571627906976715
114,USR0000CFHL,"FORT HUNTER LIGGET CALIFORNIA, CA US",36.0117,-121.2417,335.3,2005,27.0,111.0,60.7,77.8,43.5,57.571627906976715
115,USC00046624,"PALMDALE, CA US",34.5883,-118.0938,796.1,2005,25.0,109.0,62.8,76.6,49.0,57.571627906976715
116,USR0000CSAW,"SAWYERS BAR CALIFORNIA, CA US",41.3003,-123.1322,668.1,2005,24.0,107.0,55.5,69.9,41.0,57.571627906976715
117,USC00046508,"ORLEANS, CA US",41.3088,-123.5316,122.8,2005,27.0,101.0,57.6,69.0,46.1,57.571627906976715
118,USC00046506,"ORLAND, CA US",39.7458,-122.1997,77.4,2005,29.0,105.0,62.7,74.9,50.6,57.571627906976715
119,USR0000CHLR,"HOLLISTER CALIFORNIA, CA US",36.8422,-121.3622,123.1,2005,31.0,104.0,60.0,73.6,46.4,57.571627906976715
120,USR0000CLTU,"LITTLE TUJUNGA CALIFORNIA, CA US",34.2936,-118.3608,423.7,2005,37.0,101.0,63.2,75.4,51.0,57.571627906976715
121,USC00045890,"MOUNTAIN PASS, CA US",35.470279999999995,-115.54361000000002,1441.7,2005,,,,,,57.571627906976715
122,USC00045532,"MERCED, CA US",37.2888,-120.5158,46.9,2005,23.0,108.0,63.5,77.3,49.7,57.571627906976715
123,USC00044683,"LAKEHEAD, CA US",40.8988,-122.3913,426.1,2005,,,,,,57.571627906976715
124,USR0000CSAU,"SAUGUS CALIFORNIA, CA US",34.425,-118.525,442.0,2005,35.0,107.0,64.7,76.5,52.8,57.571627906976715
125,USR0000CLSF,"LAS FLORES CALIFORNIA, CA US",33.2889,-117.4389,30.5,2005,37.0,98.0,63.0,72.4,53.5,57.571627906976715
126,USR0000CMTZ,"MOUNT ZION CALIFORNIA, CA US",38.3894,-120.6511,902.2,2005,33.0,105.0,63.6,75.1,52.1,57.571627906976715
127,USR0000CWHH,"WHITTIER HILLS CALIFORNIA, CA US",33.9839,-118.01,289.6,2005,42.0,101.0,65.6,76.5,54.8,57.571627906976715
128,USW00023225,"BLUE CANYON AIRPORT, CA US",39.2774,-120.7102,1608.1,2005,23.0,87.0,50.8,56.9,44.6,57.571627906976715
129,USR0000CEEL,"EEL RIVER CALIFORNIA, CA US",39.8333,-123.0833,457.2,2005,24.0,111.0,58.3,74.2,42.4,57.571627906976715
130,USC00043004,"FELTON, CA US",37.05056,-122.075,121.9,2005,23.0,102.0,57.8,73.4,42.3,57.571627906976715
131,USC00047846,"SAN LUIS DAM, CA US",37.053329999999995,-121.05778000000001,84.4,2005,34.0,108.0,64.0,75.2,52.9,57.571627906976715
132,USC00046635,"PALM SPRINGS, CA US",33.8275,-116.5097,129.5,2005,,,,,,57.571627906976715
133,USC00047965,"SANTA ROSA, CA US",38.45579,-122.71335,50.6,2005,28.0,97.0,58.1,70.6,45.7,57.571627906976715
134,USR0000CCAN,"CANBY CALIFORNIA, CA US",41.4342,-120.8678,1314.3,2005,-9.0,100.0,48.7,64.6,32.8,57.571627906976715
135,USR0000CCAM,"CAMERON FIRE STATION CALIFORNI, CA US",32.7214,-116.4631,1049.4,2005,17.0,105.0,57.8,74.5,41.1,57.571627906976715
136,USR0000CCAA,"CAHUILLA CALIFORNIA, CA US",32.9736,-115.1736,84.7,2005,36.0,119.0,76.7,90.6,62.9,57.571627906976715
137,USR0000CJOH,"JOHNSONDALE CALIFORNIA, CA US",35.9717,-118.545,1432.6,2005,9.0,102.0,52.1,69.8,34.4,57.571627906976715
138,USR0000CWHT,"WHITMORE CALIFORNIA, CA US",40.6194,-121.8994,736.7,2005,27.0,109.0,59.9,72.2,47.6,57.571627906976715
139,USC00044211,"IDYLLWILD FIRE DEPARTMENT, CA US",33.7572,-116.7066,1639.8,2005,,,,,,57.571627906976715
140,USC00043244,"FREMONT, CA US",37.5422,-122.0158,11.6,2005,33.0,96.0,60.2,70.0,50.4,57.571627906976715
141,USW00023230,"OAKLAND METROPOLITAN, CA US",37.7214,-122.2208,1.8,2005,32.0,92.0,57.8,65.8,49.8,57.571627906976715
142,USW00023232,"SACRAMENTO EXECUTIVE AIRPORT, CA US",38.5069,-121.495,4.6,2005,28.0,105.0,61.4,73.6,49.2,57.571627906976715
143,USW00023110,"LEMOORE REEVES NAS, CA US",36.33333,-119.95,70.7,2005,,,,,,57.571627906976715
144,USR0000CTAL,"TALEGA CALIFORNIA, CA US",33.4781,-117.4858,366.7,2005,42.0,101.0,65.3,75.8,54.8,57.571627906976715
145,USW00023237,"STOCKTON METROPOLITAN AIRPORT, CA US",37.8891,-121.2258,7.9,2005,26.0,108.0,63.0,76.2,49.7,57.571627906976715
146,USW00023234,"SAN FRANCISCO INTERNATIONAL AIRPORT, CA US",37.6197,-122.3647,2.4,2005,38.0,89.0,58.6,65.8,51.5,57.571627906976715
147,USW00023233,"SALINAS AIRPORT, CA US",36.6636,-121.6081,22.6,2005,31.0,92.0,58.1,67.5,48.7,57.571627906976715
148,USC00046646,"PALO ALTO, CA US",37.4436,-122.1402,7.6,2005,31.0,94.0,58.5,69.2,47.8,57.571627906976715
149,USR0000CGHP,"GRASSHOPPER CALIFORNIA, CA US",40.7817,-120.7844,1877.0,2005,5.0,93.0,44.3,57.1,31.5,57.571627906976715
150,USC00043491,"GOLD RUN 2 SW, CA US",39.165,-120.8566,1011.9,2005,,,,,,57.571627906976715
151,USC00041194,"BURBANK VALLEY PUMP PLANT, CA US",34.1866,-118.348,199.6,2005,35.0,98.0,64.5,77.2,51.7,57.571627906976715
152,USC00045790,"MONTEBELLO, CA US",34.0191,-118.1052,75.0,2005,,,,,,57.571627906976715
153,USR0000CTAN,"TANBARK CALIFORNIA, CA US",34.2069,-117.7606,792.5,2005,33.0,103.0,62.4,72.9,52.0,57.571627906976715
154,USC00043256,"FRESNO 5 NE, CA US",36.7672,-119.7092,103.0,2005,,,,,,57.571627906976715
155,USC00047731,"SAN CLEMENTE DAM, CA US",36.4375,-121.7092,182.9,2005,,,,,,57.571627906976715
156,USC00043134,"FORESTHILL RANGER STATION, CA US",39.01,-120.8455,919.0,2005,,,,,,57.571627906976715
157,USC00044223,"IMPERIAL, CA US",32.8488,-115.5666,-19.5,2005,34.0,119.0,73.8,88.4,59.3,57.571627906976715
158,USC00045795,"MONTEREY, CA US",36.590309999999995,-121.9055,79.2,2005,35.0,83.0,56.4,63.6,49.1,57.571627906976715
159,USR0000CTAR,"TARGET RANGE CALIFORNIA, CA US",33.3722,-117.3589,279.8,2005,42.0,104.0,63.8,72.7,54.8,57.571627906976715
160,USR0000CCOH,"COHASSET CALIFORNIA, CA US",39.8717,-121.7689,528.2,2005,28.0,107.0,63.2,72.7,53.8,57.571627906976715
161,USW00023285,"LIVERMORE MUNICIPAL AIRPORT, CA US",37.6927,-121.8144,119.8,2005,27.0,104.0,59.7,72.0,47.5,57.571627906976715
162,USR0000CCOL,"COLLINS BALDY CALIFORNIA, CA US",41.775,-122.9503,1674.3,2005,18.0,89.0,47.9,56.0,39.8,57.571627906976715
163,USC00049490,"WEAVERVILLE, CA US",40.7367,-122.9404,627.3,2005,24.0,106.0,54.6,69.7,39.5,57.571627906976715
164,USC00047195,"QUINCY, CA US",39.9366,-120.9475,1042.4,2005,18.0,101.0,51.7,66.3,37.1,57.571627906976715
165,USC00048163,"SHELTER COVE AVIATION, CA US",40.03306,-124.07278000000001,75.0,2005,37.0,,,,49.2,57.571627906976715
166,USW00023161,"BARSTOW DAGGETT AIRPORT, CA US",34.8536,-116.7858,584.3,2005,28.0,117.0,67.4,81.2,53.6,57.571627906976715
167,USR0000CPHI,"PINE HILLS CALIFORNIA, CA US",33.0164,-116.6339,0.0,2005,28.0,100.0,58.8,70.3,47.3,57.571627906976715
168,USR0000CSNL,"SAN LUIS NWR CALIFORNIA, CA US",37.1822,-120.7939,19.8,2005,,,,,,57.571627906976715
169,USR0000CSNR,"SANTA RITA CALIFORNIA, CA US",36.3478,-120.5978,1524.0,2005,26.0,94.0,54.9,62.7,47.1,57.571627906976715
170,USW00024259,"MONTAGUE SISKIYOU AIRPORT, CA US",41.78139,-122.46806000000001,808.0,2005,12.0,103.0,51.1,65.8,36.4,57.571627906976715
171,USR0000CCOA,"CORONA CALIFORNIA, CA US",33.8744,-117.5492,195.1,2005,36.0,105.0,66.7,79.2,54.2,57.571627906976715
172,USW00024257,"REDDING MUNICIPAL AIRPORT, CA US",40.5175,-122.2986,151.5,2005,24.0,112.0,62.6,75.4,49.8,57.571627906976715
173,USR0000CCP9,"CAMP 9 CALIFORNIA, CA US",34.3617,-118.4217,1219.2,2005,32.0,102.0,58.9,67.3,50.5,57.571627906976715
174,USR0000CMCB,"MILL CREEK BDF CALIFORNIA, CA US",34.0836,-117.0347,899.2,2005,32.0,109.0,63.7,76.0,51.3,57.571627906976715
175,USR0000CPIE,"PIERCE CALIFORNIA, CA US",40.2461,-120.6422,1737.4,2005,13.0,95.0,48.8,61.9,35.8,57.571627906976715
176,USC00040673,"BEN LOMOND NUMBER 4, CA US",37.0855,-122.0797,128.0,2005,27.0,102.0,58.8,73.2,44.4,57.571627906976715
177,USR0000CCOU,"CO LINE CALIFORNIA, CA US",39.0189,-122.4119,635.5,2005,30.0,110.0,61.5,73.3,49.7,57.571627906976715
178,USR0000CSOL,"SOLDIER MOUNTAIN CALIFORNIA, CA US",40.9258,-121.5856,1130.8,2005,18.0,101.0,53.9,65.7,42.0,57.571627906976715
179,USR0000CPIH,"PINEHURST CALIFORNIA, CA US",36.6853,-119.0,1237.5,2005,27.0,102.0,58.0,69.4,46.6,57.571627906976715
180,USR0000CWWO,"WHITE WOLF CALIFORNIA, CA US",37.8511,-119.65,2446.0,2005,7.0,85.0,43.3,56.6,29.9,57.571627906976715
181,USC00040436,"BAKER, CA US",35.276109999999996,-116.06278,293.2,2005,,,,,,57.571627906976715
182,USC00043824,"HAT CREEK, CA US",40.9316,-121.5433,919.0,2005,8.0,102.0,49.6,67.4,31.8,57.571627906976715
183,USR0000CLAB,"LOS BANOS CALIFORNIA, CA US",37.0547,-121.0531,106.7,2005,35.0,106.0,64.0,74.3,53.7,57.571627906976715
184,USR0000CCOO,"COOSKIE MOUNTAIN CALIFORNIA, CA US",40.2569,-124.2661,899.2,2005,30.0,99.0,53.7,61.2,46.1,57.571627906976715
185,USR0000CCON,"CONVERSE CALIFORNIA, CA US",34.1942,-116.9131,1712.4,2005,16.0,97.0,53.5,67.0,39.9,57.571627906976715
186,USC00040790,"BIG SUR STATION, CA US",36.2472,-121.7802,61.0,2005,36.0,91.0,57.9,68.5,47.4,57.571627906976715
187,USR0000CCOR,"CORRALITOS CALIFORNIA, CA US",36.9911,-121.7978,137.2,2005,,,,,,57.571627906976715
188,USW00023174,"LOS ANGELES INTERNATIONAL AIRPORT, CA US",33.938,-118.3888,29.6,2005,42.0,96.0,63.0,70.1,56.0,57.571627906976715
189,USR0000CMAN,"MANZANITA LAKE CALIFORNIA, CA US",40.54,-121.5803,1725.2,2005,8.0,93.0,46.1,59.5,32.7,57.571627906976715
190,USR0000CBLD,"BLUE DOOR CALIFORNIA, CA US",41.0547,-120.3375,1711.5,2005,6.0,95.0,45.9,58.5,33.2,57.571627906976715
191,USC00047085,"PORTOLA, CA US",39.8053,-120.4719,1478.3,2005,,,,,,57.571627906976715
192,USR0000CMAR,"MARIPOSA GROVE CALIFORNIA, CA US",37.5128,-119.6047,1950.7,2005,19.0,93.0,51.9,62.1,41.7,57.571627906976715
193,USW00023293,"SAN JOSE, CA US",37.3591,-121.92399999999999,15.5,2005,33.0,96.0,60.6,70.5,50.6,57.571627906976715
194,USC00040449,"BALCH POWER HOUSE, CA US",36.9092,-119.0883,528.8,2005,,,,,,57.571627906976715
195,USC00042506,"DOYLE 4 SSE, CA US",39.9717,-120.0828,1338.1,2005,8.0,98.0,50.4,63.9,37.0,57.571627906976715
196,USR0000CMAL,"MALIBU HILLS CALIFORNIA, CA US",34.0583,-118.6333,480.1,2005,39.0,104.0,64.1,73.6,54.6,57.571627906976715
197,USW00023179,"NEEDLES AIRPORT, CA US",34.7675,-114.6188,271.3,2005,31.0,125.0,75.9,88.2,63.6,57.571627906976715
198,USS0020H06S,"CEDAR PASS, CA US",41.58,-120.3,2142.7,2005,6.0,89.0,42.9,52.9,32.9,57.571627906976715
199,USC00042500,"DOWNIEVILLE, CA US",39.5633,-120.8238,888.5,2005,24.0,100.0,53.3,67.4,39.3,57.571627906976715
200,USC00040444,"BAKERSFIELD 5 NW, CA US",35.4186,-119.0508,143.3,2005,,,,,,57.571627906976715
201,USC00043710,"HAIWEE, CA US",36.1388,-117.9527,1165.9,2005,,,,,,57.571627906976715
202,USR0000CBLT,"BEN BOLT CALIFORNIA, CA US",38.5908,-120.9336,275.8,2005,28.0,110.0,61.1,75.2,47.1,57.571627906976715
203,USC00041534,"CARMEL VALLEY, CA US",36.4805,-121.7244,146.3,2005,30.0,97.0,58.4,71.0,45.8,57.571627906976715
204,USC00043714,"HALF MOON BAY, CA US",37.4725,-122.4433,8.2,2005,31.0,81.0,55.4,63.7,47.1,57.571627906976715
205,USC00048045,"SCOTIA, CA US",40.4833,-124.1038,41.5,2005,33.0,85.0,57.1,65.7,48.5,57.571627906976715
206,USW00093138,"PALM SPRINGS ASOS, CA US",33.8222,-116.5043,124.7,2005,37.0,120.0,74.2,87.3,61.1,57.571627906976715
207,USR0000CBLQ,"BLUE RIDGE KNF CALIFORNIA, CA US",41.2694,-123.1875,1815.4,2005,15.0,91.0,47.8,56.5,39.2,57.571627906976715
208,USS0019L08S,"LEAVITT MEADOWS, CA US",38.3,-119.55,2194.0,2005,,,,,,57.571627906976715
209,USC00049378,"VISTA, CA US",33.2354,-117.2322,131.1,2005,33.0,96.0,63.2,73.1,53.3,57.571627906976715
210,USC00049152,"U C L A, CA US",34.0697,-118.4427,131.1,2005,44.0,94.0,63.8,71.4,56.2,57.571627906976715
211,USR0000CBKD,"BLACK DIAMOND CALIFORNIA, CA US",37.95,-121.8844,487.7,2005,32.0,102.0,59.4,67.1,51.6,57.571627906976715
212,USC00041428,"CAMP PARDEE, CA US",38.2486,-120.8433,200.6,2005,33.0,107.0,62.7,73.7,51.6,57.571627906976715
213,USC00041424,"CAMPO, CA US",32.6263,-116.4699,801.6,2005,20.0,105.0,59.3,76.5,42.2,57.571627906976715
214,USR0000CMAD,"MAD RIVER CALIFORNIA, CA US",40.4633,-123.5239,845.8,2005,26.0,104.0,53.6,67.2,40.0,57.571627906976715
215,USR0000CSMI,"SAN MIGUEL CALIFORNIA, CA US",32.685,-116.9736,129.5,2005,42.0,97.0,63.9,72.3,55.5,57.571627906976715
216,USR0000CDOY,"DOYLE CALIFORNIA, CA US",40.0222,-120.1056,1292.4,2005,-1.0,104.0,51.2,65.9,36.4,57.571627906976715
217,USS0019L19S,"EBBETTS PASS, CA US",38.55,-119.8,2671.6,2005,9.0,78.0,41.9,50.5,33.2,57.571627906976715
218,USS0019L07S,"SONORA PASS, CA US",38.31,-119.6,2690.5,2005,6.0,81.0,40.6,50.4,30.8,57.571627906976715
219,USC00049026,"TRINITY RIVER HATCHERY, CA US",40.7263,-122.7947,567.2,2005,27.0,106.0,55.2,69.2,41.2,57.571627906976715
220,USC00040693,"BERKELEY, CA US",37.8744,-122.2605,94.5,2005,,,,,,57.571627906976715
221,USR0000CCMO,"CASE MOUNTAIN CALIFORNIA, CA US",36.4108,-118.8092,1966.0,2005,21.0,93.0,51.8,60.9,42.7,57.571627906976715
222,USR0000CCLE,"CLEAR CREEK CALIFORNIA, CA US",34.2711,-118.1525,914.4,2005,32.0,99.0,60.8,68.9,52.7,57.571627906976715
223,USC00049043,"TRUCKEE RANGER STATION, CA US",39.333,-120.17299999999999,1774.9,2005,0.0,94.0,44.0,59.9,28.2,57.571627906976715
224,USC00049285,"VENTURA, CA US",34.2825,-119.2919,32.0,2005,,,,,,57.571627906976715
225,USW00023152,"BURBANK GLENDALE PASADENA AIRPORT, CA US",34.200559999999996,-118.3575,225.9,2005,37.0,99.0,64.8,75.5,54.2,57.571627906976715
226,USW00023273,"SANTA MARIA PUBLIC AIRPORT, CA US",34.8994,-120.4486,73.8,2005,30.0,95.0,58.1,69.1,47.1,57.571627906976715
227,USW00023155,"BAKERSFIELD AIRPORT, CA US",35.4344,-119.0542,149.0,2005,33.0,107.0,65.5,77.3,53.7,57.571627906976715
228,USR0000CFRE,"FREMONT CANYON CALIFORNIA, CA US",33.8081,-117.7111,542.8,2005,39.0,103.0,65.6,76.2,55.0,57.571627906976715
229,USW00023275,"UKIAH MUNICIPAL AIRPORT, CA US",39.12583,-123.20083000000001,183.2,2005,27.0,106.0,58.8,72.8,44.9,57.571627906976715
230,USR0000COCR,"OAK CREEK CALIFORNIA, CA US",36.8425,-118.2594,1479.8,2005,20.0,106.0,59.7,72.1,47.3,57.571627906976715
231,USW00023272,"SAN FRANCISCO DOWNTOWN, CA US",37.7705,-122.4269,45.7,2005,40.0,87.0,57.9,64.2,51.6,57.571627906976715
232,USR0000CFRI,"FRIEND MOUNTAIN CALIFORNIA, CA US",40.505,-123.3417,1219.2,2005,20.0,100.0,52.2,63.5,40.9,57.571627906976715
233,USW00023271,"SACRAMENTO 5 ESE, CA US",38.5552,-121.4183,11.6,2005,34.0,107.0,63.7,75.5,52.0,57.571627906976715
234,USR0000CCLA,"CLAREMONT CALIFORNIA, CA US",34.1369,-117.7069,501.4,2005,35.0,101.0,63.4,75.4,51.5,57.571627906976715
235,USW00023157,"BISHOP AIRPORT, CA US",37.3711,-118.35799999999999,1250.3,2005,11.0,108.0,56.5,74.3,38.7,57.571627906976715
236,USW00023277,"WATSONVILLE MUNICIPAL AIRPORT, CA US",36.9358,-121.7886,48.8,2005,32.0,91.0,57.6,67.6,47.6,57.571627906976715
237,USW00023158,"BLYTHE ASOS, CA US",33.6186,-114.7142,120.4,2005,26.0,121.0,73.7,87.3,60.1,57.571627906976715
238,USC00041312,"CALISTOGA, CA US",38.5961,-122.6013,121.9,2005,25.0,102.0,59.5,74.6,44.5,57.571627906976715
239,USC00042402,"DE SABLA, CA US",39.8716,-121.6108,826.0,2005,24.0,103.0,56.1,69.9,42.3,57.571627906976715
240,USC00043614,"GREENVIEW, CA US",41.5519,-122.9236,859.5,2005,,,,,,57.571627906976715
241,USC00045915,"MOUNT DIABLO JUNCTION, CA US",37.8792,-121.9303,661.4,2005,29.0,99.0,57.2,68.4,46.0,57.571627906976715
242,USC00041316,"CALLAHAN, CA US",41.3111,-122.8044,970.8,2005,8.0,99.0,50.3,65.0,35.5,57.571627906976715
243,USR0000CCLK,"CLARK CALIFORNIA, CA US",33.8767,-117.3089,524.3,2005,32.0,107.0,64.1,79.1,49.1,57.571627906976715
244,USS0019L06S,"POISON FLAT, CA US",38.51,-119.63,2357.9,2005,2.0,82.0,40.9,53.4,28.4,57.571627906976715
245,USR0000CDNK,"DINKEY CALIFORNIA, CA US",37.0664,-119.0394,1727.6,2005,,,,,,57.571627906976715
246,USC00049035,"TRONA, CA US",35.7636,-117.3908,516.6,2005,26.0,117.0,68.1,81.8,54.5,57.571627906976715
247,USR0000CSLA,"SLATER BUTTE CALIFORNIA, CA US",41.8586,-123.3525,1423.4,2005,21.0,95.0,49.9,58.8,41.0,57.571627906976715
248,USC00040343,"ASH MOUNTAIN, CA US",36.4914,-118.8253,520.6,2005,,,,,,57.571627906976715
249,USR0000CDNO,"DELNORTE CALIFORNIA, CA US",34.0092,-119.6542,243.8,2005,45.0,94.0,62.4,69.1,55.7,57.571627906976715
250,USS0020H13S,"ADIN MOUNTAIN, CA US",41.24,-120.79,1886.7,2005,-3.0,89.0,43.3,56.4,30.1,57.571627906976715
251,USR0000CDMC,"DEMOCRAT CALIFORNIA, CA US",35.5317,-118.6303,718.1,2005,28.0,108.0,61.6,75.3,47.9,57.571627906976715
252,USW00093230,"SOUTH LAKE TAHOE AIRPORT, CA US",38.8983,-119.9947,1924.5,2005,-4.0,89.0,43.4,57.1,29.6,57.571627906976715
253,USW00093110,"OXNARD VENTURA CO AIRPORT, CA US",34.200829999999996,-119.20693999999999,11.0,2005,41.0,93.0,61.3,68.9,53.8,57.571627906976715
254,USW00093111,"POINT MUGU NF, CA US",34.11667,-119.11667,4.0,2005,37.0,99.0,59.6,68.4,50.9,57.571627906976715
255,USC00049173,"UPPER LAKE, CA US",39.19056,-122.89639,406.9,2005,,,,,,57.571627906976715
256,USR0000CAGD,"ARROYO GRANDE CALIFORNIA, CA US",35.1792,-120.3919,319.4,2005,32.0,104.0,61.2,76.5,46.0,57.571627906976715
257,USW00093112,"NORTH ISLAND NAS, CA US",32.7,-117.2,7.9,2005,,,,,,57.571627906976715
258,USC00044838,"LAVA BEDS NAT MON, CA US",41.7019,-121.5011,1453.9,2005,9.0,98.0,48.4,61.2,35.5,57.571627906976715
259,USC00042410,"DESERT CENTER 2 NNE, CA US",33.7377,-115.3925,227.7,2005,29.0,120.0,72.7,86.7,58.7,57.571627906976715
260,USC00044710,"LAKESIDE 2 E, CA US",32.8536,-116.8947,210.3,2005,,,,,,57.571627906976715
261,USR0000CRIC,"RICE VALLEY CALIFORNIA, CA US",34.0608,-114.7322,249.9,2005,24.0,120.0,72.7,87.4,58.0,57.571627906976715
262,USC00044712,"LAKE SOLANO, CA US",38.492,-122.0039,57.0,2005,31.0,108.0,63.3,76.0,50.5,57.571627906976715
263,USR0000CBIP,"BIG PINES CALIFORNIA, CA US",34.3789,-117.6919,2108.3,2005,16.0,95.0,52.3,63.5,41.1,57.571627906976715
264,USC00045802,"MONTEREY WEATHER FORECAST OFFICE, CA US",36.5927,-121.8555,37.2,2005,32.0,86.0,57.9,66.5,49.3,57.571627906976715
265,USC00043747,"HANFORD 1 S, CA US",36.3158,-119.637,72.2,2005,26.0,105.0,62.8,75.2,50.4,57.571627906976715
266,USC00044957,"LINDSAY, CA US",36.2032,-119.0545,132.6,2005,,,,,,57.571627906976715
267,USR0000CGSP,"GREEN SPRING CALIFORNIA, CA US",37.8331,-120.5,310.9,2005,31.0,109.0,62.6,75.3,49.9,57.571627906976715
268,USR0000CBIH,"BIG HILL CALIFORNIA, CA US",41.0975,-123.6358,1088.1,2005,25.0,96.0,52.2,61.1,43.3,57.571627906976715
269,USW00093225,"SACRAMENTO METROPOLITAN AIRPORT, CA US",38.69556,-121.58972,7.0,2005,29.0,106.0,61.5,74.2,48.7,57.571627906976715
270,USW00093227,"NAPA CO AIRPORT, CA US",38.2102,-122.2847,4.3,2005,24.0,101.0,56.3,68.7,43.9,57.571627906976715
271,USW00093228,"HAYWARD AIR TERMINAL, CA US",37.6542,-122.115,13.1,2005,34.0,93.0,59.2,66.7,51.6,57.571627906976715
272,USC00042771,"EL MIRAGE, CA US",34.5891,-117.6302,899.2,2005,,,,,,57.571627906976715
273,USC00040232,"ANTIOCH PUMPING PLANT NUMBER 3, CA US",37.9833,-121.7525,18.3,2005,,,,,,57.571627906976715
274,USR0000CHUR,"HURLEY CALIFORNIA, CA US",37.0153,-119.5678,366.1,2005,20.0,108.0,59.8,75.3,44.2,57.571627906976715
275,USC00049185,"UPPER SAN LEANDRO FILTERS, CA US",37.7719,-122.1675,120.1,2005,,,,,,57.571627906976715
276,USW00003104,"DESERT RESORTS REGIONAL AIRPORT, CA US",33.626670000000004,-116.15943999999999,-36.0,2005,26.0,121.0,72.8,87.8,57.8,57.571627906976715
277,USR0000COAM,"OAK MOUNTAIN CALIFORNIA, CA US",41.0064,-121.9833,518.2,2005,27.0,105.0,57.8,69.2,46.5,57.571627906976715
278,USS0020H02S,"CROWDER FLAT, CA US",41.89,-120.75,1575.8,2005,0.0,93.0,45.4,57.7,33.2,57.571627906976715
279,USR0000COAK,"OAK KNOLL CALIFORNIA, CA US",41.8386,-122.85,591.3,2005,15.0,107.0,54.6,70.6,38.6,57.571627906976715
280,USR0000CSIV,"SIMI VALLEY CALIFORNIA, CA US",34.2911,-118.8144,278.6,2005,39.0,97.0,62.5,71.5,53.4,57.571627906976715
281,USR0000CSIM,"SIMS CALIFORNIA, CA US",41.075,-122.3733,731.5,2005,27.0,107.0,57.5,70.2,44.8,57.571627906976715
282,USR0000CGRA,"GRANITE MOUNTAIN CALIFORNIA, CA US",34.5356,-117.0258,1438.7,2005,,,,,,57.571627906976715
283,USR0000CYUR,"YUROK CALIFORNIA, CA US",41.2897,-123.8575,150.9,2005,31.0,106.0,57.1,68.5,45.6,57.571627906976715
284,USW00003102,"ONTARIO INTERNATIONAL AIRPORT, CA US",34.05611,-117.60028,289.3,2005,36.0,102.0,65.6,77.3,53.7,57.571627906976715
285,USC00045933,"MOUNT HAMILTON, CA US",37.3436,-121.6425,1282.0,2005,26.0,91.0,54.8,61.1,48.5,57.571627906976715
286,USR0000CUND,"UNDERWOOD CALIFORNIA, CA US",40.7219,-123.4953,792.5,2005,25.0,105.0,54.8,67.1,42.4,57.571627906976715
287,USC00041697,"CHERRY VALLEY DAM, CA US",37.9747,-119.9161,1452.4,2005,19.0,97.0,53.5,65.0,42.1,57.571627906976715
288,USC00041214,"BURNEY, CA US",40.8802,-121.6547,974.8,2005,,,,,,57.571627906976715
289,USC00043875,"HEALDSBURG, CA US",38.621359999999996,-122.85813999999999,53.0,2005,30.0,105.0,61.1,74.2,47.9,57.571627906976715
290,USR0000CSHQ,"SHADEQUARTER CALIFORNIA, CA US",36.5672,-118.9556,1240.2,2005,28.0,97.0,58.1,66.5,49.7,57.571627906976715
291,USS0020K30S,"SQUAW VALLEY G.C., CA US",39.19,-120.26,2447.2,2005,,,,,,57.571627906976715
292,USW00023188,"SAN DIEGO INTERNATIONAL AIRPORT, CA US",32.7336,-117.1831,4.6,2005,44.0,89.0,64.1,69.8,58.5,57.571627906976715
293,USW00023187,"SANDBERG, CA US",34.7436,-118.7242,1374.6,2005,26.0,97.0,56.0,64.3,47.7,57.571627906976715
294,USW00023182,"PALMDALE AIRPORT, CA US",34.62944,-118.08361000000001,769.2,2005,20.0,110.0,61.4,76.0,46.8,57.571627906976715
295,USW00093134,"LOS ANGELES DOWNTOWN USC, CA US",34.0236,-118.2911,54.6,2005,43.0,97.0,65.1,73.9,56.2,57.571627906976715
296,USC00042319,"DEATH VALLEY, CA US",36.4622,-116.8669,-59.1,2005,30.0,129.0,77.8,90.6,65.0,57.571627906976715
297,USR0000CSHH,"SCHOOL HOUSE CALIFORNIA, CA US",41.1383,-123.9056,804.7,2005,30.0,94.0,52.6,59.6,45.7,57.571627906976715
298,USR0000CWPK,"WHITAKER PEAK CALIFORNIA, CA US",34.5686,-118.7403,1255.8,2005,32.0,102.0,59.4,67.9,50.9,57.571627906976715
299,USW00003131,"SAN DIEGO MONTGOMERY FIELD, CA US",32.81583,-117.13944,127.1,2005,37.0,95.0,63.9,72.4,55.3,57.571627906976715
300,USW00004222,"REDDING 12 WNW, CA US",40.6507,-122.6068,432.2,2005,,,,,,57.571627906976715
301,USC00043402,"GIBRALTAR DAM NUMBER 2, CA US",34.5225,-119.6822,474.9,2005,,,,,,57.571627906976715
302,USR0000COAB,"OAK BOTTOM CALIFORNIA, CA US",40.6506,-122.6056,404.2,2005,28.0,114.0,61.4,74.9,47.9,57.571627906976715
303,USR0000CBGR,"BANGOR CALIFORNIA, CA US",39.3975,-121.3861,244.8,2005,28.0,108.0,62.0,74.3,49.7,57.571627906976715
304,USC00040379,"AUBERRY 2 NW, CA US",37.0919,-119.5128,637.0,2005,28.0,104.0,61.5,72.6,50.4,57.571627906976715
305,USC00040014,"ACTON ESCONDIDO CANYON, CA US",34.4938,-118.2713,863.5,2005,,,,,,57.571627906976715
306,USR0000CYUC,"YUCCA VALLEY CALIFORNIA, CA US",34.1233,-116.4078,993.6,2005,23.0,112.0,62.2,76.1,48.3,57.571627906976715
307,USC00043882,"HEARST CASTLE, CA US",35.6841,-121.1683,465.1,2005,,,,,,57.571627906976715
308,USR0000CELC,"EL CARISO CALIFORNIA, CA US",33.6472,-117.4111,926.0,2005,32.0,106.0,64.3,75.7,52.8,57.571627906976715
309,USW00024286,"CRESCENT CITY MCNAMARA AIRPORT, CA US",41.78028,-124.23666999999999,17.1,2005,32.0,69.0,52.6,58.4,46.8,57.571627906976715
310,USW00024283,"ARCATA EUREKA AIRPORT, CA US",40.97806,-124.10861000000001,61.0,2005,22.0,76.0,51.9,59.0,44.8,57.571627906976715
311,USW00093241,"VACAVILLE NUT TREE AIRPORT, CA US",38.3775,-121.9575,33.2,2005,29.0,108.0,62.0,74.7,49.3,57.571627906976715
312,USW00093242,"MADERA MUNICIPAL AIRPORT, CA US",36.98778,-120.11056,77.1,2005,26.0,107.0,62.3,75.6,48.9,57.571627906976715
313,USR0000CCHC,"CHICO CALIFORNIA, CA US",39.7119,-121.7789,70.1,2005,27.0,109.0,62.4,75.5,49.3,57.571627906976715
314,USW00093243,"MERCED 23 WSW, CA US",37.2381,-120.8825,23.8,2005,,,,,,57.571627906976715
315,USR0000CCHB,"CHEESEBORO CALIFORNIA, CA US",34.1847,-118.7172,502.9,2005,40.0,101.0,65.2,75.3,55.1,57.571627906976715
316,USR0000CPAN,"PANAMINT CALIFORNIA, CA US",36.1203,-117.0878,2097.0,2005,16.0,99.0,54.1,65.7,42.5,57.571627906976715
317,USS0020K31S,"CSS LAB, CA US",39.33,-120.37,2089.4,2005,8.0,85.0,43.1,53.8,32.3,57.571627906976715
318,USR0000CBEV,"BEVERLY HILLS CALIFORNIA, CA US",34.125,-118.4122,384.0,2005,39.0,106.0,66.2,78.9,53.5,57.571627906976715
319,USR0000CWOL,"WOLVERTON CALIFORNIA, CA US",36.445,-118.7033,1597.2,2005,,,,,,57.571627906976715
320,USR0000CACT,"ACTON CALIFORNIA, CA US",34.4458,-118.2,792.5,2005,28.0,110.0,60.5,75.4,45.7,57.571627906976715
321,USR0000CBEU,"BEAUMONT CALIFORNIA, CA US",33.9306,-116.95,793.7,2005,30.0,108.0,63.0,76.8,49.2,57.571627906976715
322,USR0000CTIM,"TIMBER MOUNTAIN CALIFORNIA, CA US",41.6294,-121.2981,1511.8,2005,15.0,97.0,49.3,59.3,39.3,57.571627906976715
323,USC00043896,"HEMET, CA US",33.7381,-116.8939,552.0,2005,28.0,110.0,64.1,81.5,46.8,57.571627906976715
324,USC00041476,"CANBY, CA US",41.4219,-120.9016,1313.7,2005,,,,,,57.571627906976715
325,USC00044500,"KENTFIELD, CA US",37.9566,-122.5447,44.2,2005,32.0,101.0,58.9,69.6,48.3,57.571627906976715
326,USC00044863,"LEBEC, CA US",34.83328,-118.86497,1089.7,2005,,,,,,57.571627906976715
327,USC00046926,"PINNACLES NM, CA US",36.4819,-121.1822,398.4,2005,21.0,109.0,58.7,77.4,40.1,57.571627906976715
328,USR0000CCHU,"CHUCHUPATE CALIFORNIA, CA US",34.8083,-119.0125,1493.5,2005,3.0,98.0,50.1,67.1,33.1,57.571627906976715
329,USC00042327,"DEEP CANYON LAB, CA US",33.6513,-116.3763,365.8,2005,,,,,,57.571627906976715
330,USC00044628,"LA CRESCENTA FC251C, CA US",34.2222,-118.2377,470.9,2005,,,,,,57.571627906976715
331,USC00043417,"GILROY, CA US",37.003,-121.5608,59.1,2005,31.0,,,,48.9,57.571627906976715
332,USR0000CCHI,"CHILAO CALIFORNIA, CA US",34.3317,-118.0303,1661.2,2005,25.0,102.0,57.0,65.4,48.5,57.571627906976715
333,USC00040029,"ADIN RANGER STATION, CA US",41.1936,-120.9447,1278.6,2005,3.0,,,,36.7,57.571627906976715
334,USR0000CPAT,"PATTY MOCUS CALIFORNIA, CA US",40.295,-122.8667,1066.8,2005,27.0,99.0,55.5,64.9,46.1,57.571627906976715
335,USR0000CELI,"MOUNT ELIZABETH CALIFORNIA, CA US",38.0631,-120.2469,1503.6,2005,26.0,96.0,54.9,62.9,47.0,57.571627906976715
336,USW00023191,"AVALON CATALINA AIRPORT, CA US",33.405,-118.41583,488.3,2005,41.0,93.0,60.2,66.8,53.6,57.571627906976715
337,USR0000CPAR,"PARKFIELD CALIFORNIA, CA US",35.8989,-120.4319,467.9,2005,22.0,,,,43.5,57.571627906976715
338,USW00023190,"SANTA BARBARA MUNICIPAL AIRPORT, CA US",34.4258,-119.8425,2.7,2005,31.0,98.0,58.9,68.9,48.9,57.571627906976715
339,USR0000CFO1,"FORT ORD NUMBER 1 CALIFORNIA, CA US",36.6269,-121.7981,140.2,2005,33.0,89.0,57.1,65.7,48.4,57.571627906976715
340,USR0000CELM,"EL MIRAGE CALIFORNIA, CA US",34.6344,-117.5503,877.8,2005,19.0,113.0,61.2,77.8,44.6,57.571627906976715
341,USW00003159,"LANCASTER, CA US",34.7411,-118.2116,712.6,2005,15.0,110.0,61.9,76.5,47.3,57.571627906976715
342,USR0000CBUL,"BULL FLAT CALIFORNIA, CA US",40.4808,-120.1139,1339.6,2005,-8.0,101.0,47.6,63.4,31.9,57.571627906976715
343,USC00048560,"STOCKTON FIRE STATION 4, CA US",37.9994,-121.3177,3.7,2005,27.0,106.0,62.7,76.4,49.0,57.571627906976715
344,USR0000CBUR,"BURNS CANYON CALIFORNIA, CA US",34.2103,-116.6339,1828.8,2005,22.0,96.0,56.5,64.4,48.5,57.571627906976715
345,USC00047470,"RIVERSIDE FIRE STATION 3, CA US",33.9511,-117.38799999999999,256.0,2005,,,,,,57.571627906976715
346,USS0019L24S,"HEAVENLY VALLEY, CA US",38.92,-119.92,2615.8,2005,,,,,,57.571627906976715
347,USR0000CLHO,"LOST HORSE CALIFORNIA, CA US",34.0178,-116.1878,1280.2,2005,22.0,107.0,59.4,73.1,45.6,57.571627906976715
348,USS0020K04S,"INDEPENDENCE CAMP, CA US",39.45,-120.29,2134.5,2005,3.0,88.0,43.0,56.2,29.7,57.571627906976715
349,USR0000CASC,"ASH CREEK CALIFORNIA, CA US",41.2769,-121.9794,975.4,2005,6.0,99.0,47.9,65.1,30.6,57.571627906976715
350,USC00041806,"CLEARLAKE 4 SE, CA US",38.9238,-122.5672,411.2,2005,,102.0,,70.8,,57.571627906976715
351,USR0000CASH,"ASH VALLEY CALIFORNIA, CA US",41.0519,-120.6861,1554.5,2005,-9.0,96.0,46.1,60.5,31.7,57.571627906976715
352,USC00047109,"POTTER VALLEY POWERHOUSE, CA US",39.3619,-123.1286,310.3,2005,,,,,,57.571627906976715
353,USC00047228,"RAMONA FIRE DEPARTMENT, CA US",33.0113,-116.90799999999999,448.1,2005,,,,,,57.571627906976715
354,USC00048317,"SNOW CREEK UPPER, CA US",33.8725,-116.67971999999999,591.3,2005,,,,,,57.571627906976715
355,USR0000CBUU,"BUTTERCUP CALIFORNIA, CA US",32.7397,-114.8839,66.1,2005,34.0,121.0,76.2,90.6,61.8,57.571627906976715
356,USC00049660,"WHITTIER CITY YARD FC106C, CA US",33.9758,-118.0222,135.9,2005,,,,,,57.571627906976715
357,USC00049781,"WOODLAND 1 WNW, CA US",38.6829,-121.794,20.4,2005,,,,,,57.571627906976715
358,USR0000CKET,"KETTLEMAN HILLS CALIFORNIA, CA US",36.0333,-120.0569,246.9,2005,36.0,108.0,66.3,75.8,56.7,57.571627906976715
359,USR0000CSVA,"SPRING VALLEY CALIFORNIA, CA US",37.5625,-122.4364,327.7,2005,35.0,97.0,56.0,64.4,47.5,57.571627906976715
360,USS0020K05S,"INDEPENDENCE LAKE, CA US",39.43,-120.31,2545.7,2005,12.0,86.0,43.9,53.0,34.8,57.571627906976715
361,USS0020L02S,"RUBICON NUMBER 2, CA US",39.0,-120.13,2343.6,2005,16.0,81.0,44.2,51.5,36.8,57.571627906976715
362,USR0000CPOP,"POPPY PARK CALIFORNIA, CA US",34.7325,-118.3833,841.2,2005,23.0,107.0,62.2,74.7,49.6,57.571627906976715
363,USR0000CKER,"KERNVILLE CALIFORNIA, CA US",35.755,-118.4167,829.1,2005,27.0,113.0,62.9,78.4,47.5,57.571627906976715
364,USW00003144,"IMPERIAL CO AIRPORT, CA US",32.83417,-115.57861000000001,-17.7,2005,,,,,,57.571627906976715
365,USR0000CPOV,"POVERTY CALIFORNIA, CA US",37.4431,-121.7706,629.7,2005,35.0,97.0,58.8,67.1,50.4,57.571627906976715
366,USR0000CBUC,"BUCK MEADOWS CALIFORNIA, CA US",37.8233,-120.0975,975.4,2005,22.0,101.0,55.4,69.1,41.6,57.571627906976715
367,USC00046144,"NEWARK, CA US",37.5147,-122.0325,3.0,2005,,95.0,,68.7,,57.571627906976715
368,USC00046263,"NORTHRIDGE CAL STATE, CA US",34.2447,-118.525,275.5,2005,37.0,103.0,65.7,76.9,54.6,57.571627906976715
369,USC00047473,"RIVERSIDE CITRUS EXPERIMENTAL, CA US",33.96694,-117.36138999999999,300.5,2005,35.0,106.0,66.1,79.4,52.8,57.571627906976715
370,USC00046027,"MUIR WOODS, CA US",37.8977,-122.5688,67.1,2005,,,,,,57.571627906976715
371,USC00049792,"WOODSIDE FIRE STATION 1, CA US",37.4286,-122.2561,115.8,2005,,,,,,57.571627906976715
372,USC00046161,"NEWHALL 5 NW, CA US",34.3933,-118.5938,538.0,2005,35.0,106.0,64.0,75.1,52.9,57.571627906976715
373,USC00040738,"BIG BAR 4 E, CA US",40.7405,-123.2077,381.9,2005,28.0,107.0,56.2,69.7,42.7,57.571627906976715
374,USC00041948,"COLUSA 2 SSW, CA US",39.1875,-122.0269,15.2,2005,29.0,106.0,62.1,74.8,49.4,57.571627906976715
375,USW00003177,"CARLSBAD MCCLELLAN PALOMAR AIRPORT, CA US",33.12806,-117.27944,100.0,2005,42.0,96.0,62.3,69.0,55.7,57.571627906976715
376,USW00003179,"CHINO AIRPORT, CA US",33.97528,-117.63611000000002,198.1,2005,,,,,,57.571627906976715
377,USW00003178,"SAN DIEGO BROWN FIELD, CA US",32.57222,-116.97944,157.0,2005,38.0,99.0,63.6,73.3,53.9,57.571627906976715
378,USR0000CKEE,"KEENWILD CALIFORNIA, CA US",33.6667,-116.7667,1499.6,2005,24.0,101.0,57.8,70.6,45.0,57.571627906976715
379,USR0000CMIL,"MILL CREEK ANF CALIFORNIA, CA US",34.3903,-118.0825,1530.4,2005,27.0,97.0,56.5,64.7,48.2,57.571627906976715
380,USW00003171,"RIVERSIDE MUNICIPAL AIRPORT, CA US",33.95194,-117.43861000000001,245.2,2005,33.0,103.0,64.6,78.3,50.9,57.571627906976715
381,USR0000CSUF,"SUGARLOAF SHF CALIFORNIA, CA US",40.9167,-122.4383,1280.2,2005,27.0,106.0,57.2,67.0,47.4,57.571627906976715
382,USC00046154,"NEW CUYAMA FIRE STATION, CA US",34.9455,-119.6827,658.4,2005,,,,,,57.571627906976715
383,USR0000CBSR,"BIG SUR CALIFORNIA, CA US",36.2356,-121.785,137.2,2005,36.0,95.0,59.1,70.5,47.6,57.571627906976715
384,USC00049785,"WOODLAND HILLS PIERCE COLLEGE, CA US",34.1819,-118.5744,240.8,2005,31.0,,,,49.7,57.571627906976715
385,USR0000CJAR,"JARBO GAP CALIFORNIA, CA US",39.7358,-121.4889,759.0,2005,31.0,106.0,60.0,70.7,49.4,57.571627906976715
386,USR0000CDVR,"DEVORE CALIFORNIA, CA US",34.2211,-117.4044,627.0,2005,35.0,106.0,65.4,77.1,53.7,57.571627906976715
387,USR0000CSTA,"STAMPEDE CALIFORNIA, CA US",39.4833,-120.075,2093.1,2005,2.0,93.0,46.4,60.6,32.2,57.571627906976715
388,USC00046174,"NEW MELONES DAM HQ, CA US",38.0047,-120.4863,292.6,2005,,109.0,,74.9,,57.571627906976715
389,USC00048351,"SONOMA, CA US",38.2994,-122.4622,29.6,2005,29.0,,,,45.9,57.571627906976715
390,USR0000CBRO,"BROOKS CALIFORNIA, CA US",38.7383,-122.1447,107.9,2005,28.0,110.0,62.8,76.7,49.0,57.571627906976715
391,USS0019L45S,"CARSON PASS, CA US",38.69,-119.99,2546.0,2005,6.0,78.0,41.0,50.8,31.2,57.571627906976715
392,USR0000COKO,"OAK OPENING CALIFORNIA, CA US",36.1753,-118.7017,987.6,2005,30.0,104.0,60.9,72.0,49.7,57.571627906976715
393,USR0000COKN,"OAKLAND NORTH CALIFORNIA, CA US",37.865,-122.2208,427.6,2005,35.0,98.0,57.4,65.8,49.0,57.571627906976715
394,USW00003164,"CAMPO ASOS, CA US",32.6261,-116.4681,805.0,2005,21.0,104.0,58.0,73.9,42.0,57.571627906976715
395,USC00041838,"CLOVERDALE, CA US",38.8,-123.0175,100.6,2005,31.0,,,,48.3,57.571627906976715
396,USR0000CBRA,"BRANCH MOUNTAIN CALIFORNIA, CA US",35.1889,-120.0833,1149.1,2005,,,,,,57.571627906976715
397,USW00003166,"FULLERTON MUNICIPAL AIRPORT, CA US",33.87194,-117.97888999999999,29.3,2005,39.0,99.0,64.8,74.8,54.9,57.571627906976715
398,USR0000CLEO,"LEO CARRILLO CALIFORNIA, CA US",34.0456,-118.9358,15.2,2005,42.0,100.0,62.1,70.1,54.1,57.571627906976715
399,USW00003167,"HAWTHORNE MUNICIPAL AIRPORT, CA US",33.922779999999996,-118.33417,19.2,2005,43.0,97.0,64.4,71.7,57.1,57.571627906976715
400,USC00040741,"BIG BEAR LAKE, CA US",34.243,-116.917,2058.3,2005,,,,,,57.571627906976715
401,USC00040983,"BORREGO DESERT PARK, CA US",33.2559,-116.4036,246.9,2005,,,,,,57.571627906976715
402,USC00042920,"EXCHEQUER DAM, CA US",37.585,-120.2672,134.7,2005,,,,,,57.571627906976715
403,USR0000CPNN,"PINNACLES CALIFORNIA, CA US",36.4708,-121.1472,402.9,2005,29.0,111.0,61.9,77.8,46.0,57.571627906976715
404,USR0000CSTO,"STONYFORD CALIFORNIA, CA US",39.3669,-122.575,365.8,2005,24.0,108.0,59.5,73.9,45.2,57.571627906976715
405,USC00048587,"STONY GORGE RESERVOIR, CA US",39.5861,-122.5341,243.8,2005,24.0,110.0,59.6,74.5,44.7,57.571627906976715
406,USC00047253,"RANDSBURG, CA US",35.3692,-117.6525,1088.1,2005,26.0,108.0,62.1,74.3,49.9,57.571627906976715
407,USR0000CAPT,"ALDER POINT CALIFORNIA, CA US",40.1867,-123.5903,281.3,2005,30.0,110.0,57.5,69.5,45.4,57.571627906976715
408,USW00093193,"FRESNO YOSEMITE INTERNATIONAL, CA US",36.78,-119.7194,101.5,2005,33.0,109.0,65.1,76.7,53.6,57.571627906976715
409,USR0000CLDR,"LADDER BUTTE CALIFORNIA, CA US",40.8072,-121.2967,1752.6,2005,14.0,90.0,48.9,58.0,39.9,57.571627906976715
410,USC00049694,"WILLOW CREEK 1 NW, CA US",40.9466,-123.6363,141.4,2005,,,,,,57.571627906976715
411,USW00093197,"SANTA MONICA MUNICIPAL AIRPORT, CA US",34.01583,-118.45138999999999,53.0,2005,42.0,96.0,62.9,70.3,55.6,57.571627906976715
412,USC00047150,"PRIEST VALLEY, CA US",36.18833,-120.69528000000001,701.0,2005,18.0,106.0,57.3,75.0,39.6,57.571627906976715
413,USC00041967,"CONCORD WASTEWATER PLANT, CA US",37.9833,-122.0692,12.2,2005,33.0,102.0,62.0,73.2,50.8,57.571627906976715
414,USR0000CSRS,"SANTA ROSA CALIFORNIA, CA US",38.4786,-122.7119,175.6,2005,34.0,97.0,58.9,69.6,48.1,57.571627906976715
415,USR0000CCSH,"CASHMAN CALIFORNIA, CA US",40.0017,-120.915,1377.7,2005,18.0,99.0,52.4,64.3,40.4,57.571627906976715
416,USR0000COKG,"OAK GROVE CALIFORNIA, CA US",33.3933,-116.795,838.8,2005,25.0,108.0,62.4,78.7,46.0,57.571627906976715
417,USC00040755,"BIG CREEK PH 1, CA US",37.2064,-119.2419,1486.8,2005,23.0,91.0,54.3,62.2,46.5,57.571627906976715
418,USR0000CTUO,"GAYLOR MEADOW CALIFORNIA, CA US",37.8683,-119.3183,2825.5,2005,-14.0,81.0,37.3,54.1,20.6,57.571627906976715
419,USC00041603,"CAZADERO 5 NW, CA US",38.5641,-123.1616,432.8,2005,,,,,,57.571627906976715
420,USC00042934,"FAIRFIELD, CA US",38.2736,-122.0677,12.2,2005,32.0,105.0,60.7,72.9,48.5,57.571627906976715
421,USR0000CBR4,"BRIDGEPORT 4 NW CALIFORNIA, CA US",38.2719,-119.2892,2026.9,2005,-2.0,95.0,47.6,62.3,32.8,57.571627906976715
422,USC00046175,"NEWPORT BEACH HARBOR, CA US",33.6031,-117.8836,3.0,2005,44.0,,,,57.5,57.571627906976715
423,USS0019L17S,"LOBDELL LAKE, CA US",38.44,-119.37,2814.2,2005,2.0,79.0,39.5,50.6,28.3,57.571627906976715
424,USC00048353,"SONORA, CA US",37.9672,-120.3872,510.5,2005,24.0,104.0,57.5,71.6,43.4,57.571627906976715
425,USS0019L05S,"BLUE LAKES, CA US",38.61,-119.92,2455.8,2005,,,,,,57.571627906976715
426,USC00049200,"VACAVILLE, CA US",38.395559999999996,-121.96083,33.5,2005,,109.0,,76.3,,57.571627906976715
427,USC00049684,"WILLITS 1 NE, CA US",39.4194,-123.3425,412.4,2005,,,,,,57.571627906976715
428,USR0000CMET,"METCALF GAP CALIFORNIA, CA US",37.4094,-119.7681,937.9,2005,33.0,107.0,63.6,74.7,52.4,57.571627906976715
429,USR0000CBPI,"BIG PINE FLAT CALIFORNIA, CA US",34.3194,-117.0131,2091.2,2005,7.0,99.0,50.5,66.4,34.7,57.571627906976715
430,USW00093184,"SANTA ANA JOHN WAYNE AIRPORT, CA US",33.68,-117.86639,16.5,2005,41.0,102.0,64.6,72.5,56.7,57.571627906976715
431,USC00046074,"NAPA STATE HOSPITAL, CA US",38.2777,-122.2647,10.7,2005,30.0,102.0,60.0,71.9,48.1,57.571627906976715
432,USR0000CCRN,"CORNING CALIFORNIA, CA US",39.9389,-122.1697,89.6,2005,27.0,117.0,63.1,76.1,50.0,57.571627906976715
433,USS0020L10S,"FALLEN LEAF, CA US",38.93,-120.05,1900.7,2005,5.0,85.0,43.5,56.9,30.0,57.571627906976715
434,USC00043914,"HENSHAW DAM, CA US",33.2372,-116.7614,823.0,2005,17.0,103.0,55.6,74.9,36.3,57.571627906976715
435,USR0000CGZF,"GRIZZLY FLAT CALIFORNIA, CA US",38.6197,-120.5614,1140.0,2005,26.0,101.0,55.3,67.7,42.8,57.571627906976715
436,USS0020K25S,"WARD CREEK NUMBER 3, CA US",39.14,-120.22,2028.4,2005,8.0,85.0,43.6,56.4,30.9,57.571627906976715
437,USS0020K13S,"TRUCKEE NUMBER 2, CA US",39.3,-120.18,1983.9,2005,13.0,88.0,46.5,57.2,35.8,57.571627906976715
438,USR0000CROU,"ROUND MOUNTAIN, CA US",41.4272,-121.4639,1602.6,2005,16.0,93.0,48.5,57.6,39.4,57.571627906976715
439,USR0000CSQU,"SQUAW LAKE CALIFORNIA, CA US",32.9083,-114.4944,91.4,2005,,,,,,57.571627906976715
440,USR0000CCRE,"CRESTVIEW CALIFORNIA, CA US",37.745,-118.9833,2316.5,2005,-8.0,90.0,42.1,60.0,24.2,57.571627906976715
441,USR0000CMEN,"MENDOCINO PASS CALIFORNIA, CA US",39.8075,-122.945,1652.0,2005,,,,,,57.571627906976715
442,USR0000CROS,"ROSE VALLEY CALIFORNIA, CA US",34.5431,-119.1842,1015.3,2005,17.0,104.0,54.3,72.7,35.9,57.571627906976715
443,USR0000CSQS,"SQUAW SPRINGS CALIFORNIA, CA US",35.37,-117.5683,1103.4,2005,30.0,107.0,63.5,72.9,54.1,57.571627906976715
444,USR0000CCRZ,"CRAZY PEAK CALIFORNIA, CA US",41.9919,-123.6036,1210.1,2005,18.0,100.0,52.2,64.5,39.9,57.571627906976715
445,USR0000CSRI,"SANTA ROSA ISLAND CALIFORNIA, CA US",33.9778,-120.0778,395.6,2005,41.0,94.0,57.2,63.7,50.6,57.571627906976715
446,USC00040521,"BARSTOW, CA US",34.8927,-117.0219,676.7,2005,22.0,113.0,65.0,78.6,51.5,57.571627906976715
447,USC00042941,"FAIRMONT, CA US",34.705,-118.4297,932.7,2005,,106.0,,71.6,,57.571627906976715
448,USR0000CSRO,"SANTA ROSA PLATEAU CALIFORNIA, CA US",33.5286,-117.2306,603.5,2005,36.0,100.0,63.1,73.5,52.7,57.571627906976715
449,USR0000CANZ,"ANZA CALIFORNIA, CA US",33.555,-116.67299999999999,1194.8,2005,18.0,103.0,57.6,72.0,43.2,57.571627906976715
450,USC00041614,"CEDARVILLE, CA US",41.5301,-120.1791,1428.9,2005,5.0,100.0,49.1,62.3,35.9,57.571627906976715
451,USC00049699,"WILLOWS 6 W, CA US",39.52316,-122.3048,71.3,2005,29.0,107.0,62.5,77.0,47.9,57.571627906976715
452,USR0000CCRR,"CARPENTER RIDGE CALIFORNIA, CA US",40.0686,-121.5825,1466.7,2005,22.0,95.0,52.7,60.9,44.5,57.571627906976715
453,USR0000CMEY,"MEYERS CALIFORNIA, CA US",38.8489,-120.0181,1923.3,2005,1.0,92.0,44.6,59.5,29.6,57.571627906976715
454,USR0000COJA,"OJAI CALIFORNIA, CA US",34.4483,-119.2303,233.2,2005,32.0,97.0,60.4,72.9,47.8,57.571627906976715
455,USR0000CCRT,"CRANSTON CALIFORNIA, CA US",33.7403,-116.8414,594.4,2005,32.0,111.0,65.4,80.5,50.3,57.571627906976715
456,USC00047050,"POMONA FAIRPLEX, CA US",34.0816,-117.7658,304.5,2005,31.0,,,,52.7,57.571627906976715
457,USC00048380,"SO ENTRANCE YOSEMITE N.P., CA US",37.5122,-119.6331,1538.3,2005,14.0,93.0,47.9,62.2,33.6,57.571627906976715
458,USC00049351,"VINTON, CA US",39.8056,-120.1858,1508.8,2005,,,,,,57.571627906976715
459,USC00049473,"WATSONVILLE WATERWORKS, CA US",36.9308,-121.7691,29.0,2005,33.0,90.0,57.8,67.5,48.2,57.571627906976715
