"STATION","NAME","LATITUDE","LONGITUDE","ELEVATION","DATE","EMNT","EMXT","TAVG","TMAX","TMIN"
"USC00097171","PRIDGEN, GA US","31.6953","-82.9239","91.4","2002","20","100","65.8","77.3","54.4"
"USC00099077","WALESKA, GA US","34.31083","-84.5375","364.5","2002",,,,,
"USC00091908","CHICKAMAUGA PARK LARC, GA US","34.9203","-85.2711","238.4","2002","10","100","60.3","72.9","47.7"
"USC00096087","MOULTRIE 2 ESE, GA US","31.1769","-83.7491","103.6","2002","21","98","67.3","77.6","57.1"
"USC00095394","LUMPKIN 2 SE, GA US","32.0306","-84.7754","147.8","2002",,,,,
"USC00092839","DUBLIN, GA US","32.5575","-82.9036","70.1","2002","20","105","64.3","77.0","51.6"
"USC00098661","THOMASTON 4 SE, GA US","32.867","-84.2654","189.0","2002",,,,,
"USC00098666","THOMASVILLE 7 NE, GA US","30.91389","-83.86111","73.2","2002",,,,,
"USC00096244","NASHVILLE 4 N, GA US","31.2644","-83.2391","77.7","2002",,,,,
"USW00053819","PEACHTREE CITY FALCON FIELD, GA US","33.35528","-84.56694","243.2","2002","12","96","61.2","73.1","49.4"
"USC00098703","TIFTON, GA US","31.4461","-83.4767","115.8","2002","21","100","66.3","77.2","55.5"
"USC00095314","LOUISVILLE 1 E, GA US","33.0125","-82.3914","98.1","2002","17","101","64.6","76.8","52.4"
"USC00091500","CAMILLA 3 SE, GA US","31.1902","-84.2036","53.3","2002",,"99",,"77.1",
"USC00091863","CHATSWORTH 2, GA US","34.7582","-84.7642","216.4","2002","14","98","60.9","72.6","49.2"
"USC00092799","DOVER, GA US","32.5997","-81.7078","31.4","2002",,,,,
"USC00094623","JACKSON DAM, GA US","33.32","-83.8436","131.1","2002",,,,,
"USC00091982","CLAYTON 1 SSW, GA US","34.8879","-83.3966","598.9","2002",,"92",,"69.5",
"USC00092159","COLUMBUS NUMBER 2, GA US","32.5181","-84.9378","132.6","2002",,,,,
"USC00096407","NORCROSS, GA US","33.9482","-84.222","306.3","2002",,,,,
"USR0000GBRA","BRASSTOWN NUMBER 1 GEORGIA, GA US","34.8028","-83.71","999.7","2002","8","87","55.5","62.9","48.2"
"USC00090253","AMERICUS, GA US","32.0306","-84.2461","121.0","2002","15","100","64.3","76.3","52.2"
"USC00091463","CAIRO, GA US","30.8696","-84.2174","61.3","2002",,,,,
"USC00091585","CANTON, GA US","34.2071","-84.5039","345.9","2002",,,,,
"USC00091340","BRUNSWICK, GA US","31.1681","-81.5022","4.0","2002","26","102","69.7","78.9","60.6"
"USC00090010","ABBEVILLE, GA US","31.938","-83.3077","73.2","2002",,"100",,"78.1",
"USC00092153","COLQUITT 2 W, GA US","31.16806","-84.76639","46.6","2002",,,,,
"USC00092791","DOUGLASVILLE, GA US","33.70056","-84.73028","305.4","2002",,,,,
"USC00099186","WAYCROSS 4 NE, GA US","31.2514","-82.3128","44.2","2002","18","101","66.8","79.5","54.1"
"USC00094170","HAWKINSVILLE, GA US","32.2843","-83.4681","74.7","2002",,"102",,"76.9",
"USC00098492","SUWANEE 5 E, GA US","34.08639","-83.98333","334.1","2002",,,,,
"USW00003820","AUGUSTA BUSH FIELD AIRPORT, GA US","33.3644","-81.9633","40.2","2002","16","101","64.1","76.4","51.7"
"USC00099466","WINDER 4 S, GA US","33.9275","-83.72611","271.0","2002","16","98","61.1","72.6","49.6"
"USW00003822","SAVANNAH INTERNATIONAL AIRPORT, GA US","32.13133","-81.20237","14.0","2002","19","101","67.2","77.6","56.7"
"USC00099502","WOODBINE, GA US","30.9591","-81.7071","4.9","2002","15","100","66.6","78.3","54.8"
"USC00097201","PRESTON, GA US","32.0547","-84.5239","123.4","2002",,,,,
"USC00098535","TALBOTTON, GA US","32.6864","-84.5207","189.0","2002",,,,,
"USC00097600","ROME, GA US","34.2413","-85.1584","208.8","2002","15","98","61.2","72.3","50.0"
"USC00094971","LAKELAND, GA US","31.03917","-83.07583","57.9","2002","21","100","67.7","78.8","56.6"
"USC00092966","EASTMAN 1 W, GA US","32.2003","-83.2058","121.9","2002","19","101","65.9","77.9","53.9"
"USC00093538","FORT STEWART, GA US","31.86945","-81.62358","28.0","2002",,,,,
"USC00099506","WOODBURY, GA US","32.9783","-84.5982","222.5","2002",,,,,
"USC00093658","GEORGETOWN 4 E, GA US","31.8966","-85.0375","149.4","2002",,,,,
"USC00095666","MCDONOUGH 5 ENE, GA US","33.47686","-84.03358","215.8","2002",,"100",,"74.4",
"USC00093016","EDEN, GA US","32.1901","-81.4153","9.4","2002",,,,,
"USC00090140","ALBANY 3 SE, GA US","31.5338","-84.1488","54.9","2002","19","101","66.9","78.4","55.3"
"USC00092283","CORNELIA, GA US","34.5181","-83.5286","448.1","2002","16","95","59.0","69.0","48.9"
"USC00099194","WAYNESBORO 2 S, GA US","33.07129","-82.00728","84.4","2002",,,,,
"USC00098241","SPRINGFIELD, GA US","32.35879","-81.31181","25.6","2002","20","104","66.5","78.3","54.6"
"USC00099451","WILLACOOCHEE 5 ENE, GA US","31.355","-82.9339","61.0","2002",,,,,
"USC00094281","HIAWASSEE 3 SE, GA US","34.88472","-83.71611","670.6","2002",,"91",,"68.0",
"USW00053838","GAINESVILLE LEE GILMER MEMORIAL AIRPORT, GA US","34.27194","-83.83028","388.6","2002","18","96","61.3","70.8","51.7"
"USC00097276","QUITMAN 2 NW, GA US","30.78361","-83.56917","56.4","2002",,,,,
"USC00097430","RESACA, GA US","34.59111","-84.95889","198.1","2002",,,,,
"USC00091965","CLARKESVILLE, GA US","34.6159","-83.5429","423.7","2002",,"97",,"71.2",
"USC00094204","HAZLEHURST, GA US","31.8878","-82.5808","76.2","2002","19","101","66.5","77.8","55.1"
"USC00090236","ALTO 4 SE, GA US","34.4416","-83.5161","279.8","2002","13","90","56.2","67.6","44.8"
"USC00093621","GAINESVILLE, GA US","34.3006","-83.86","356.6","2002","19","96","60.6","70.9","50.3"
"USC00093465","FOLKSTON 9 SW, GA US","30.74","-82.1278","36.6","2002","21","102","69.7","81.7","57.8"
"USC00094728","JULIETTE, GA US","33.1139","-83.7881","137.2","2002",,,,,
"USC00092493","DALTON, GA US","34.77","-84.88722","243.5","2002",,,,,
"USC00093460","FOLKSTON 3 SW, GA US","30.7997","-82.0313","9.1","2002",,,,,
"USR0000GJON","JONES ISLAND GEORGIA, GA US","30.8289","-82.36","34.7","2002",,,,,
"USW00093842","COLUMBUS METROPOLITAN AIRPORT, GA US","32.5161","-84.9422","119.5","2002","21","99","66.3","76.6","56.0"
"USC00093060","ELBERTON 2 N, GA US","34.1409","-82.8551","164.6","2002","10","96","58.9","70.8","47.0"
"USW00093845","VALDOSTA REGIONAL AIRPORT, GA US","30.7825","-83.27667","60.4","2002",,,,,
"USC00098476","SURRENCY, GA US","31.70778","-82.19694","61.0","2002",,,,,
"USC00091619","CARNESVILLE, GA US","34.36555","-83.23278","204.2","2002",,,,,
"USW00013869","ALBANY SW GEORGIA REGIONAL AIRPORT, GA US","31.53556","-84.19444","57.9","2002","18","100","67.0","78.3","55.6"
"USC00090406","ASHBURN 3 ENE, GA US","31.70028","-83.62306","132.6","2002",,"99",,"76.8",
"USC00092429","CURRYVILLE 3 W, GA US","34.4397","-85.1033","188.1","2002",,,,,
"USC00096335","NEWNAN 7 WNW, GA US","33.3996","-84.915","242.3","2002",,,,,
"USR0000GCHA","CHATTOOGA NUMBER 1 GEORGIA, GA US","34.6403","-83.5219","457.2","2002","10","95","59.2","69.9","48.5"
"USC00095401","LYONS, GA US","32.2024","-82.3305","65.2","2002",,"103",,"78.8",
"USC00094676","JESUP 8 S, GA US","31.5075","-81.8628","30.5","2002",,,,,
"USC00098517","SYLVANIA 2 SSE, GA US","32.7322","-81.6178","76.2","2002",,,,,
"USC00091732","CEDARTOWN, GA US","34.0588","-85.2338","239.3","2002",,,,,
"USC00095404","MABLETON 1 N, GA US","33.8533","-84.5783","298.7","2002",,,,,
"USC00093115","ELLIJAY, GA US","34.6937","-84.4935","414.2","2002",,,,,
"USC00096219","NAHUNTA 6 NE, GA US","31.2738","-81.9197","20.7","2002",,,,,
"USW00013870","ALMA BACON CO AIRPORT, GA US","31.5358","-82.5067","58.8","2002","18","102","67.5","78.9","56.2"
"USC00092266","CORDELE, GA US","31.985","-83.77472","93.9","2002",,"102",,"78.6",
"USC00092783","DOUGLAS, GA US","31.48889","-82.82056","71.0","2002","22","103","67.6","80.2","54.9"
"USC00097827","SAUTEE 3 W, GA US","34.6646","-83.7342","484.9","2002",,,,,
"USW00013878","BRUNSWICK MALCOLM MCKINNON AIRPORT, GA US","31.1522","-81.3908","4.9","2002","26","98","68.8","76.5","61.1"
"USW00013874","ATLANTA HARTSFIELD INTERNATIONAL AIRPORT, GA US","33.6301","-84.4418","307.8","2002","18","97","62.7","72.0","53.5"
"USW00013873","ATHENS BEN EPPS AIRPORT, GA US","33.948","-83.3275","239.3","2002","16","100","62.4","72.9","51.8"
"USC00098064","SILOAM 3 N, GA US","33.5635","-83.0768","211.8","2002",,,,,
"USC00096043","MORGAN 5 NW, GA US","31.60611","-84.64528","83.2","2002",,,,,
"USC00099157","WASHINGTON, GA US","33.7264","-82.7059","189.0","2002","17","100","62.5","74.0","51.0"
"USC00098740","TOCCOA, GA US","34.5786","-83.3319","308.5","2002",,"100",,"73.3",
"USW00013837","AUGUSTA DANIEL FIELD AIRPORT, GA US","33.46694","-82.03861","128.9","2002","21","101","65.8","75.5","56.1"
"USC00092517","DANIELSVILLE, GA US","34.1175","-83.3044","237.7","2002","16","99","60.8","72.1","49.6"
"USR0000GCOH","COHUTTA NUMBER 1 GEORGIA, GA US","34.9225","-84.6594","525.5","2002","14","93","59.6","68.4","50.8"
"USC00091425","BUTLER, GA US","32.6524","-84.1858","135.9","2002",,,,,
"USC00095874","MILLEDGEVILLE, GA US","33.0831","-83.2498","112.2","2002","17","102","63.5","75.9","51.2"
"USC00097777","SANDERSVILLE, GA US","32.9745","-82.8045","137.5","2002","19","99","63.6","74.6","52.6"
"USC00091665","CARTERSVILLE, GA US","34.2043","-84.7925","240.5","2002","14","97","60.7","71.9","49.5"
"USC00094700","JONESBORO, GA US","33.5312","-84.3545","283.5","2002","18","98","62.2","73.2","51.3"
"USC00093325","FARGO 17 NE, GA US","30.8264","-82.3606","37.8","2002","21","101","68.3","80.4","56.2"
"USC00091266","BROOKLET 1 W, GA US","32.375","-81.6731","54.9","2002","19","103","66.6","78.3","54.9"
"USC00094429","HOMERVILLE 5 N, GA US","31.0767","-82.8003","57.0","2002",,,,,
"USW00053863","ATLANTA DEKALB PEACHTREE AIRPORT, GA US","33.875","-84.30222","305.3","2002","20","97","62.0","72.3","51.7"
"USC00095061","LEESBURG 2, GA US","31.7633","-84.1869","79.2","2002",,,,,
"USC00099141","WARRENTON, GA US","33.4029","-82.6222","149.4","2002","17","99","62.5","74.5","50.4"
"USC00097087","PLAINS SW GA EXPERIMENTAL STATION, GA US","32.0467","-84.3711","152.4","2002",,"100",,"77.5",
"USC00092408","CUMMING 2 N, GA US","34.2286","-84.1281","347.5","2002",,,,,
"USC00094133","HARTWELL, GA US","34.35178","-82.93013","245.4","2002","18","97","61.1","70.8","51.5"
"USC00099027","VIENNA, GA US","32.10833","-83.82889","103.0","2002",,,,,
"USC00097489","RINGGOLD, GA US","34.90028","-85.06667","234.7","2002",,,,,
"USR0000GARM","ARMUCHEE NUMBER 1 GEORGIA, GA US","34.6953","-85.1736","351.1","2002","12","96","60.7","69.7","51.7"
"USC00095863","MIDVILLE EXPERIMENTAL STATION, GA US","32.8753","-82.2156","85.3","2002",,,,,
"USC00092006","CLEVELAND, GA US","34.5859","-83.7658","477.6","2002","6","94","57.2","69.9","44.5"
"USC00093578","FORT GAINES 2, GA US","31.615","-85.0494","64.0","2002",,"98",,"76.8",
"USC00095988","MONTICELLO, GA US","33.3329","-83.6975","157.9","2002",,"99",,"74.2",
"USC00090586","BAINBRIDGE INTERNATIONAL PAPER, GA US","30.82278","-84.6175","57.9","2002",,,,,
"USC00097528","ROCKY FORD 4 SE, GA US","32.6328","-81.7756","45.7","2002",,"102",,"76.6",
"USC00091670","CARTERSVILLE NUMBER 2, GA US","34.1825","-84.7958","234.7","2002",,,,,
"USC00092485","DALLAS 7 NE, GA US","33.9982","-84.751","313.3","2002","13","98","60.9","72.6","49.2"
"USC00093695","GIBSON, GA US","33.2261","-82.5949","126.8","2002",,,,,
"USC00097808","SAPELO ISLAND, GA US","31.39806","-81.28077","3.0","2002","25","98","68.7","77.1","60.4"
"USC00092361","CRISP CO POWER DAM, GA US","31.8453","-83.9409","74.7","2002",,,,,
"USC00090181","ALLATOONA DAM 2, GA US","34.165","-84.73","297.2","2002",,,,,
"USC00093570","FRANKLIN, GA US","33.2759","-85.0992","240.8","2002",,,,,
"USW00053873","CARTERSVILLE AIRPORT, GA US","34.12306","-84.84861","232.6","2002","15","97","60.4","71.7","49.1"
"USW00003813","MACON MIDDLE GA REGIONAL AIRPORT, GA US","32.6847","-83.6527","104.5","2002","19","101","64.7","76.4","53.0"
"USC00098600","TAYLORSVILLE, GA US","34.086","-84.9827","219.8","2002",,,,,
"USC00092738","DONALSONVILLE, GA US","31.0286","-84.8911","45.7","2002",,,,,
"USC00096148","MULBERRY GROVE, GA US","32.6089","-85.0756","152.7","2002",,"98",,"76.2",
"USC00090311","APPLING 2 NW, GA US","33.55731","-82.33683","120.7","2002",,"101",,"74.5",
"USC00093147","EMBRY, GA US","33.8751","-85.0008","388.0","2002",,,,,
"USC00094648","JASPER 1 NNW, GA US","34.4758","-84.4461","446.5","2002","22","92","59.8","68.6","50.9"
"USC00095979","MONTEZUMA 2 NW, GA US","32.3176","-84.065","91.1","2002",,,,,
"USC00091640","CARROLLTON, GA US","33.5972","-85.0805","303.3","2002","14","94","60.1","71.0","49.2"
"USC00092450","CUTHBERT, GA US","31.76722","-84.79306","140.5","2002","17",,,,"53.1"
"USC00099124","WARNER ROBINS, GA US","32.6094","-83.6163","128.0","2002","12","102","63.8","76.4","51.2"
"USW00003888","ATLANTA FULTON CO AIRPORT, GA US","33.77917","-84.52139","256.0","2002","18","96","61.9","72.7","51.2"
"USC00090969","BLAIRSVILLE EXPERIMENTAL STATION, GA US","34.8544","-83.9444","594.1","2002","8","91","56.4","68.2","44.5"
"USC00094230","HELEN, GA US","34.6996","-83.7261","455.1","2002",,,,,
"USC00099486","WINTERVILLE, GA US","33.9664","-83.2911","271.3","2002","15","99","61.4","72.5","50.4"
"USC00094594","IRWINTON 4 WNW, GA US","32.8294","-83.2389","157.0","2002",,"103",,"77.1",
"USC00098436","SUMMERVILLE, GA US","34.4546","-85.39","194.8","2002",,,,,
"USC00098950","U OF GA PLANT SCIENCE FARM, GA US","33.8722","-83.5358","256.0","2002","14","100","61.5","72.9","50.1"
"USC00090603","BALL GROUND, GA US","34.3328","-84.4703","387.1","2002",,,,,
"USC00095204","LINCOLNTON, GA US","33.77637","-82.47137","138.4","2002",,,,,
"USC00090444","ATLANTA 9 NW, GA US","33.8263","-84.4961","276.5","2002",,,,,
"USC00090044","ADAIRSVILLE 5 SE, GA US","34.3407","-84.8347","291.4","2002",,,,,
"USC00091372","BUENA VISTA, GA US","32.3179","-84.5204","196.9","2002",,,,,
"USC00093271","EXPERIMENT, GA US","33.26306","-84.28417","284.7","2002","14","96","62.5","73.4","51.5"
